ID,NAME,PROVINCE,LATITUDE,LONGITUDE,ELEVATION,HOURLY_FIRST_DAY, HOURLY_LAST_DAY, DAILY_FIRST_DAY, DAILY_LAST_DAY,MONTHLY_FIRST_DAY, MONTHLY_LAST_DAY
10700,(AE) BOW SUMMIT,ALTA,51.7,-116.466666666667,2080,null,null,1998-02-01,2007-11-30,1998-04-01,2007-11-01
625,100 MILE HOUSE,BC,51.65,-121.266666666667,929.6,null,null,1957-06-01,1959-08-31,1957-01-01,1959-12-01
1308,100 MILE HOUSE,BC,51.64695,-121.302516666667,1059.2,null,null,1970-05-01,1999-11-30,1970-01-01,1999-11-01
1309,100 MILE HOUSE 6NE,BC,51.6813888888889,-121.216944444444,928,null,null,1987-06-01,2013-12-28,1987-01-01,2007-02-01
626,108 MILE HOUSE,BC,51.75,-121.333333333333,957.1,null,null,1970-05-01,1973-07-31,1970-01-01,1973-12-01
559,108 MILE HOUSE ABEL LAKE,BC,51.7048333333333,-121.404166666667,993.9,null,null,1987-07-01,2013-12-18,1987-01-01,2007-02-01
1224,108 MILE HOUSE WATSON LAKE,BC,51.7,-121.333333333333,890,null,null,1987-07-01,1989-12-31,1987-01-01,1989-12-01
627,150 MILE HOUSE,BC,52.1166666666667,-121.933333333333,737.6,null,null,1947-10-01,1963-09-30,1947-01-01,1963-12-01
628,150 MILE HOUSE 7N,BC,52.2166666666667,-122,883.9,null,null,1969-01-01,1975-01-31,1969-01-01,1975-12-01
6755,26 MILE DEPOT,NFLD,48.4166666666667,-57.0666666666667,266.7,null,null,1962-01-01,1962-11-30,1962-01-01,1962-12-01
1321,70 MILE HOUSE,BC,51.3,-121.4,1079.9,null,null,1974-05-01,1987-06-30,1974-01-01,1987-12-01
3066,ABBEY,SASK,50.7,-108.783333333333,694.9,null,null,1956-05-01,2008-01-31,1956-01-01,2007-11-01
701,ABBOTSFORD,BC,49.0166666666667,-122.333333333333,0,null,null,1956-04-01,1956-12-31,1956-01-01,1956-12-01
702,ABBOTSFORD A,BC,49.0252777777778,-122.36,59.1,1953-01-01,2012-06-21,1944-10-01,2012-06-20,1944-01-01,2012-05-01
50308,ABBOTSFORD A,BC,49.0252777777778,-122.36,59.1,2011-10-07,2013-12-30,2012-06-21,2013-12-30,null,null
703,ABBOTSFORD EAST,BC,49.0333333333333,-122.25,7.6,null,null,1960-11-01,1962-12-31,1960-01-01,1962-12-01
704,ABBOTSFORD KING ROAD,BC,49.0333333333333,-122.3,61,null,null,1968-11-01,1973-03-31,1968-01-01,1973-12-01
705,ABBOTSFORD UPPER SUMAS,BC,49.05,-122.266666666667,9.1,null,null,1935-11-01,1946-03-31,1935-01-01,1946-12-01
32232,ABEE AGDM,ALTA,54.2833333333333,-112.966666666667,664,1990-03-07,2013-12-30,2002-11-01,2013-12-30,2002-11-01,2007-11-01
5308,ABERCORN,QUE,45.0333333333333,-72.6666666666667,149.4,null,null,1950-12-01,1985-01-31,1950-01-01,1985-12-01
6288,ABERCROMBIE POINT,NS,45.65,-62.7166666666667,10.7,null,null,1973-09-01,1978-12-31,1973-01-01,1978-12-01
3272,ABERDEEN,SASK,52.4,-106.166666666667,518.2,null,null,1987-11-01,1991-09-30,1987-01-01,1991-11-01
1166,ABERFELDIE,BC,49.5,-115.366666666667,804.7,null,null,1950-05-01,1982-05-31,1950-01-01,1982-12-01
3980,ABITIBI CAMP 11,ONT,48.9333333333333,-89.35,442,null,null,1978-06-01,1983-12-31,1978-01-01,1981-12-01
3981,ABITIBI CAMP 11,ONT,48.85,-89.1166666666667,491,null,null,1983-11-01,1988-04-30,1983-01-01,1988-12-01
3982,ABITIBI CAMP 228,ONT,48.9333333333333,-89.25,472.4,null,null,1969-12-01,1978-06-30,1969-01-01,1978-12-01
3983,ABITIBI CAMP 230,ONT,49.35,-89.3666666666667,457.2,null,null,1969-11-01,1991-01-31,1969-01-01,1991-11-01
3984,ABITIBI CAMP 300,ONT,49.6333333333333,-89.75,426.7,null,null,1978-02-01,1986-12-31,1978-01-01,1986-12-01
4141,ABITIBI CANYON,ONT,49.8833333333333,-81.5666666666667,204.2,null,null,1931-02-01,1963-10-31,1931-01-01,1963-12-01
6018,ABITIBI POST,QUE,48.7166666666667,-79.3666666666667,259.1,null,null,1896-07-01,1936-02-29,1896-01-01,1936-12-01
6106,ACADIA FOREST EXP ST,NB,45.9902777777778,-66.3633333333333,54,null,null,1955-01-01,2010-04-27,1955-01-01,2006-02-01
47748,ACADIA VALLEY,ALTA,51.0661361111111,-110.316969444444,735,2009-02-13,2013-12-30,2009-02-13,2013-12-30,null,null
2030,ACADIA VALLEY,ALTA,51.1833333333333,-110.233333333333,732,null,null,1980-08-01,1991-09-30,1980-01-01,1991-12-01
2032,ACADIA VALLEY CDA EPF,ALTA,51.0666666666667,-110.133333333333,0,null,null,1965-07-01,1965-07-31,1965-01-01,1965-12-01
2031,ACADIA VALLEY EXP ST,ALTA,51.0833333333333,-110.283333333333,712.9,null,null,1954-01-01,1962-12-31,1954-01-01,1962-12-01
2033,ACADIA VALLEY MACTAVISH,ALTA,51.1961138888889,-110.168891666667,743.7,null,null,1988-05-01,2005-01-31,1988-01-01,2005-01-01
2034,ACADIA VALLEY VANDYNE,ALTA,51.0333333333333,-110.3,708.6,null,null,1988-05-01,1998-09-30,1988-01-01,1998-09-01
6107,ACADIEVILLE,NB,46.7333333333333,-65.2833333333333,61,null,null,1980-02-01,1995-01-31,1980-01-01,1995-01-01
2035,ACME CDA EPF,ALTA,51.5,-113.416666666667,905,null,null,1953-01-01,1982-06-30,1953-01-01,1982-12-01
14,ACTIVE PASS,BC,48.8666666666667,-123.283333333333,4,null,null,1984-07-01,1996-11-30,1984-01-01,1996-11-01
4849,ACTON BEARDMORE,ONT,43.6333333333333,-80.0333333333333,320,null,null,1966-05-01,1967-10-31,1966-01-01,1967-12-01
4728,ACTON MONITOR STN,ONT,43.65,-80.05,411.5,null,null,1966-07-01,1971-10-31,1966-01-01,1971-12-01
5309,ACTON VALE,QUE,45.65,-72.5666666666667,94.5,null,null,1964-06-01,1973-08-31,1964-01-01,1973-12-01
2649,ADAIR LO,ALTA,59.1666666666667,-118.333333333333,365.8,null,null,1968-05-01,2011-08-22,1968-01-01,2007-08-01
2460,ADAMS CREEK LO,ALTA,53.7166666666667,-118.566666666667,2209.8,null,null,1962-05-01,2011-08-16,1962-01-01,2007-09-01
1225,ADAMS LAKE SKWAAM BAY,BC,51.0833333333333,-119.8,457.2,null,null,1972-06-01,1975-08-31,1972-01-01,1975-12-01
374,ADDENBROKE ISLAND,BC,51.6035277777778,-127.863861111111,21.3,1994-02-01,2001-12-13,1978-01-01,2013-12-29,1978-01-01,2007-02-01
2331,ADEN,ALTA,49.05,-111.316666666667,1036.3,null,null,1962-06-01,2000-08-31,1962-01-01,2000-08-01
983,ADRA,BC,49.7333333333333,-119.583333333333,1002.5,null,null,1928-09-01,1953-08-31,1928-01-01,1953-12-01
707,AGASSIZ CDA,BC,49.2430555555556,-121.760277777778,15,null,null,1889-10-01,2013-12-29,1889-01-01,2007-02-01
708,AGASSIZ MOUNTAIN INSTITUTE,BC,49.2666666666667,-121.833333333333,30,null,null,1986-04-01,1995-05-31,1986-01-01,1995-05-01
706,AGASSIZ RCS,BC,49.2430555555556,-121.760277777778,19.3,1994-02-01,2013-12-30,1988-11-01,2013-12-30,1988-01-01,2006-11-01
4105,AGNEW MINE,ONT,46.4333333333333,-81.6166666666667,305.1,null,null,1978-07-01,1983-11-30,1978-01-01,1983-12-01
3985,AGUASABON,ONT,48.7833333333333,-87.1666666666667,189,null,null,1950-06-01,1972-05-31,1950-01-01,1972-12-01
5886,AIGREMONT,QUE,49.3,-73.85,403.9,null,null,1973-11-01,1982-03-31,1973-01-01,1980-12-01
4729,AILSA CRAIG,ONT,43.15,-81.5333333333333,228.6,null,null,1968-04-01,1972-02-29,1968-01-01,1972-12-01
2181,AIRDRIE,ALTA,51.3166666666667,-113.883333333333,1082,null,null,1961-08-01,1963-04-30,1961-01-01,1963-12-01
1515,AISHIHIK A,YT,61.65,-137.483333333333,966.2,1953-01-01,1966-09-27,1943-06-01,1966-09-30,1943-01-01,1966-12-01
452,AIYANSH,BC,55.2333333333333,-129.016666666667,228.6,null,null,1924-01-01,1971-09-30,1924-01-01,1971-12-01
453,AIYANSH 2SE,BC,55.1833333333333,-129.05,213.4,null,null,1974-07-01,1985-08-31,1974-01-01,1985-12-01
9604,AKAMINA PASS,ALTA,49.0266666666667,-114.051111111111,1800,null,null,2002-06-01,2007-11-30,2003-01-01,2007-11-01
1623,AKLAVIK A,NWT,68.2233333333333,-135.005833333333,6.4,1953-01-01,2013-12-30,1926-07-01,2010-10-27,1926-01-01,2007-11-01
1624,AKLAVIK RADIOSONDE,NWT,68.2333333333333,-135,9.1,null,null,1953-03-01,1960-09-30,1953-01-01,1960-12-01
49308,AKULIVIK,QUE,60.83421,-78.16956,77,2011-01-20,2013-12-30,null,null,null,null
10789,AKULIVIK A,QUE,60.8166666666667,-78.15,23.2,1992-09-02,2013-12-30,null,null,null,null
2839,ALAMEDA CDA EPF,SASK,49.25,-102.283333333333,580,null,null,1894-01-01,1965-03-31,1894-01-01,1965-12-01
5887,ALBANEL,QUE,48.8833333333333,-72.45,152,null,null,1922-06-01,1991-01-31,1922-01-01,1991-12-01
6518,ALBANY,PEI,46.2666666666667,-63.5833333333333,33.5,null,null,1984-08-01,1993-03-31,1984-01-01,1993-12-01
221,ALBERNI BEAVER CREEK,BC,49.3666666666667,-124.933333333333,91.4,null,null,1894-05-01,1959-02-28,1894-01-01,1959-12-01
222,ALBERNI CITY RESERVOIR,BC,49.2666666666667,-124.783333333333,64.6,null,null,1962-03-01,1963-12-31,1962-01-01,1963-12-01
223,ALBERNI LUPSI CUPSI,BC,49.25,-124.816666666667,9.1,null,null,1948-11-01,1974-12-31,1948-01-01,1974-12-01
224,ALBERNI MCCOY LAKE,BC,49.2833333333333,-124.883333333333,42.7,null,null,1958-10-01,1973-08-31,1958-01-01,1973-12-01
225,ALBERNI ROBERTSON CREEK,BC,49.337225,-124.981969444444,73.8,null,null,1961-02-01,2013-11-30,1961-01-01,2007-02-01
46127,ALBERT HALL AGCM,ALTA,53.1133344444444,-111.181112777778,658,2007-06-27,2013-12-30,2007-05-01,2013-12-30,2007-05-01,2007-11-01
15,ALBERT HEAD,BC,48.4,-123.483333333333,17,null,null,1971-06-01,1995-04-30,1971-01-01,1995-04-01
26775,ALBERTON,ONT,43.1833333333333,-80.05,215,null,null,1994-06-01,2008-12-27,1994-01-01,2006-12-01
6519,ALBERTON,PEI,46.85,-64.0166666666667,3,null,null,1969-08-01,2008-05-31,1969-01-01,2006-02-01
49988,ALBERTON SNOW,PEI,46.8147472222222,-64.0611361111111,8.5,null,null,2012-01-15,2013-12-30,null,null
5759,ALBERTVILLE,QUE,48.3,-67.35,335.3,null,null,1963-01-01,1985-01-31,1963-01-01,1985-12-01
4850,ALBION,ONT,43.9333333333333,-79.8333333333333,274.3,null,null,1956-05-01,2000-12-31,1956-01-01,2000-12-01
4851,ALBION FIELD CENTRE,ONT,43.9166666666667,-79.8333333333333,281.9,null,null,1969-05-01,2001-03-31,1969-01-01,2001-03-01
1351,ALBREDA,BC,52.6666666666667,-119.2,873.3,null,null,1973-06-01,1977-03-31,1973-01-01,1977-12-01
1807,ALDER FLATS LO,ALTA,52.8,-114.816666666667,1075.9,null,null,1952-06-01,1984-09-30,1952-01-01,1984-12-01
709,ALDERGROVE,BC,49.1166666666667,-122.483333333333,76.2,null,null,1953-04-01,1980-06-30,1953-01-01,1980-12-01
710,ALDERGROVE 2,BC,49.0333333333333,-122.483333333333,60,null,null,1980-06-01,1989-06-30,1980-01-01,1989-12-01
711,ALDERGROVE 48 AVENUE,BC,49.0833333333333,-122.516666666667,85,null,null,1987-03-01,1991-11-30,1987-01-01,1991-11-01
699,ALDERGROVE CENTRE,BC,49.05,-122.466666666667,60,null,null,1986-09-01,1989-03-31,1986-01-01,1989-12-01
4852,ALDERSHOT,ONT,43.3166666666667,-79.8666666666667,144.8,null,null,1947-02-01,1977-02-28,1947-01-01,1977-12-01
1731,ALERT,NU,82.5177777777778,-62.2805555555556,30.5,1953-01-01,2006-10-03,1950-07-01,2006-10-31,1950-01-01,2006-10-01
7559,ALERT A,NU,82.5166666666667,-62.2833333333333,30.5,1988-04-01,2013-12-29,null,null,null,null
7350,ALERT BASE (AUT),NU,82.5,-62.3666666666667,92,1983-04-29,1986-11-29,null,null,null,null
137,ALERT BAY,BC,50.5833333333333,-126.933333333333,59.4,1954-01-01,1994-02-21,1913-12-01,2006-12-05,1913-01-01,1994-12-01
42463,ALERT CLIMATE,NU,82.5,-62.3333333333333,65.4,2004-06-21,2013-12-30,2004-06-21,2013-12-30,2005-03-01,2007-09-01
10744,ALERT UA,NU,82.5,-62.3333333333333,65.4,null,null,1997-04-01,2013-12-29,1997-04-01,2007-11-01
3461,ALEXANDER,MAN,49.8333333333333,-100.3,427,null,null,1979-05-01,1999-09-30,1979-01-01,1999-09-01
42003,ALEXANDRIA,ONT,45.3236111111111,-74.6141666666667,77,2003-03-27,2006-05-24,2003-10-01,2006-05-24,null,null
500,ALEXIS CREEK,BC,52.0833333333333,-123.283333333333,800.1,null,null,1973-08-01,1995-05-31,1973-01-01,1995-05-01
499,ALEXIS CREEK,BC,52.1,-123.616666666667,853.4,null,null,1954-07-01,1956-07-31,1954-01-01,1956-12-01
501,ALEXIS CREEK,BC,52.1333333333333,-123.333333333333,723.9,null,null,1919-10-01,1963-09-30,1919-01-01,1963-12-01
502,ALEXIS CREEK TAUTRI CRK,BC,52.55,-123.183333333333,1219.2,null,null,1961-02-01,1983-09-30,1961-01-01,1983-12-01
10729,ALEXIS RIVER (AUT),NFLD,52.65,-56.8666666666667,48.3,1994-02-01,1999-01-22,null,null,null,null
10729,ALEXIS RIVER (AUT),NFLD,52.65,-56.8666666666667,48.3,1994-02-01,1999-01-22,null,null,null,null
565,ALEZA LAKE,BC,54.1166666666667,-122.066666666667,624.8,null,null,1952-02-01,1980-07-31,1952-01-01,1980-12-01
4219,ALFRED,ONT,45.55,-74.8833333333333,54,null,null,1984-09-01,1986-03-31,1984-01-01,1985-12-01
42006,ALFRED,ONT,45.555,-74.8755555555556,57,2003-12-03,2007-06-14,2003-10-07,2007-06-14,null,null
4220,ALFRED AUTOMATIC CLIMATE STATION,ONT,45.55,-74.8833333333333,54,null,null,1989-01-01,1989-10-31,1989-01-01,1989-12-01
2461,ALGAR LO,ALTA,56.1166666666667,-111.783333333333,780.3,null,null,1959-04-01,2011-08-23,1959-01-01,2007-09-01
4187,ALGONQUIN PARK,ONT,45.5833333333333,-78.55,432.5,null,null,1917-07-01,1960-08-31,1917-01-01,1960-12-01
4188,ALGONQUIN PARK EAST,ONT,45.5333333333333,-78.2666666666667,411.5,null,null,1961-05-01,1972-11-30,1961-01-01,1972-12-01
42967,ALGONQUIN PARK EAST GATE,ONT,45.5333333333333,-78.2666666666667,397,2004-09-01,2013-12-30,2004-09-02,2013-12-30,2005-05-01,2006-12-01
4189,ALGONQUIN PARK WEST,ONT,45.3333333333333,-78.85,426.7,null,null,1961-05-01,1972-11-30,1961-01-01,1972-12-01
375,ALICE ARM,BC,55.6833333333333,-129.5,314.2,null,null,1948-01-01,1964-09-30,1948-01-01,1964-12-01
376,ALICE ARM,BC,55.4666666666667,-129.466666666667,1.5,null,null,1973-06-01,1978-09-30,1973-01-01,1978-12-01
2840,ALIDA,SASK,49.45,-101.8,585.2,null,null,1989-09-01,2004-03-31,1989-01-01,2004-03-01
2036,ALIX,ALTA,52.3833333333333,-113.166666666667,787.9,null,null,1905-08-01,1951-09-30,1905-01-01,1951-12-01
2037,ALIX,ALTA,52.3666666666667,-113.3,853.4,null,null,1970-07-01,1973-09-30,1970-01-01,1973-12-01
566,ALKALI LAKE,BC,51.7833333333333,-122.283333333333,0,null,null,1910-09-01,1922-03-31,1910-01-01,1922-12-01
4400,ALLAN PARK,ONT,44.1666666666667,-80.9333333333333,285,null,null,1975-08-01,1976-11-30,1975-01-01,1976-12-01
1808,ALLIANCE,ALTA,52.4333333333333,-111.783333333333,715.7,null,null,1916-05-01,1982-07-31,1916-01-01,1982-12-01
46327,ALLIANCE AGCM,ALTA,52.3152797222222,-111.778612777778,737,2007-08-22,2013-12-30,2007-05-01,2013-12-30,2007-05-01,2007-11-01
1809,ALLIANCE GREENVIEW,ALTA,52.3833333333333,-111.8,731.5,null,null,1960-04-01,1962-12-31,1960-01-01,1962-12-01
1810,ALLIANCE SOUTH,ALTA,52.4166666666667,-111.783333333333,713.2,null,null,1982-10-01,2000-10-31,1982-01-01,2000-10-01
938,ALLISON PASS,BC,49.1333333333333,-120.833333333333,1341.1,null,null,1958-09-01,1972-10-31,1958-01-01,1972-12-01
939,ALLISON PASS DOH,BC,49.1166666666667,-120.866666666667,1339.9,null,null,1974-11-01,1989-05-31,1974-01-01,1989-12-01
4401,ALLISTON,ONT,44.15,-79.85,213.4,null,null,1953-03-01,1975-01-31,1953-01-01,1975-12-01
6520,ALLISTON,PEI,46.0666666666667,-62.6,61,null,null,1936-01-01,2013-12-30,1936-01-01,2006-02-01
4402,ALLISTON NELSON,ONT,44.1513966666667,-79.8722466666667,221,null,null,1973-07-01,2006-12-31,1973-01-01,2006-12-01
47227,ALLISTON SNOW,PEI,46.0666666666667,-62.6,61,null,null,2008-12-28,2009-04-14,null,null
4853,ALLOA,ONT,43.7166666666667,-79.8666666666667,262.1,null,null,1951-02-01,1954-11-30,1951-01-01,1954-12-01
6108,ALMA,NB,45.6,-64.95,42.7,null,null,1950-02-01,2011-03-31,1950-01-01,2006-02-01
3571,ALMASIPPI,MAN,49.55,-98.2,274.3,null,null,1902-05-01,1925-06-30,1902-01-01,1925-12-01
4221,ALMONTE,ONT,45.1833333333333,-76.2333333333333,125,null,null,1912-02-01,1980-02-29,1912-01-01,1980-12-01
3769,ALONSA,MAN,50.8333333333333,-99.05,274.3,null,null,1980-10-01,2007-11-30,1980-01-01,2007-11-01
712,ALOUETTE LAKE,BC,49.2833333333333,-122.483333333333,117.3,null,null,1924-01-01,1982-12-31,1924-01-01,1982-12-01
713,ALOUETTE POWER HOUSE,BC,49.3666666666667,-122.316666666667,91.4,null,null,1935-07-01,1949-03-31,1935-01-01,1949-12-01
2038,ALSASK,ALTA,51.3833333333333,-110.033333333333,701,null,null,1957-05-01,1965-04-30,1957-01-01,1965-12-01
3067,ALSASK,SASK,51.4166666666667,-109.9,661.4,null,null,1970-08-01,1970-09-30,1970-01-01,1970-12-01
3205,ALSASK,SASK,51.3833333333333,-110,701,null,null,1913-06-01,1951-12-31,1913-01-01,1951-12-01
3068,ALSASK HARDENE,SASK,51.3333333333333,-109.85,658.4,null,null,1959-05-01,1997-11-30,1959-01-01,1997-11-01
291,ALTA LAKE,BC,50.15,-122.95,667.5,1953-01-01,1976-04-22,1950-10-01,1976-03-31,1950-01-01,1976-12-01
293,ALTA LAKE 2,BC,50.15,-122.983333333333,640.1,null,null,1931-11-01,1969-09-30,1931-01-01,1969-12-01
292,ALTA LAKE NORTHAIR MINE,BC,50.1166666666667,-123.1,1005.8,null,null,1975-12-01,1987-07-31,1975-01-01,1987-12-01
2332,ALTAWAN,ALTA,49.2452797222222,-110.013612222222,944.9,null,null,1965-11-01,2007-09-30,1965-01-01,2007-09-01
4854,ALTON,ONT,43.85,-80.0833333333333,401.4,null,null,1887-01-01,1964-01-31,1887-01-01,1963-12-01
3572,ALTONA,MAN,49.1,-97.55,247.8,null,null,1948-11-01,2008-07-31,1948-01-01,2007-11-01
3573,ALTONA CFAM,MAN,49.1,-97.55,247.5,null,null,1959-09-01,1968-07-31,1959-01-01,1968-12-01
3574,ALTONA SOUTH,MAN,49.05,-97.5666666666667,249.9,null,null,1984-09-01,1989-06-30,1984-01-01,1989-12-01
4541,ALVINSTON,ONT,42.8666666666667,-81.8833333333333,221,null,null,1965-06-01,1969-12-31,1965-01-01,1969-12-01
3770,AMARANTH,MAN,50.6333333333333,-98.7166666666667,259.1,null,null,1980-10-01,2004-12-31,1980-01-01,2004-12-01
2650,AMBER LO,ALTA,59.1833333333333,-119.45,579.1,null,null,1967-05-01,2011-08-16,1967-01-01,2007-08-01
7103,AMHERST (AUT),NS,45.85,-64.2666666666667,23,1994-02-01,2005-05-04,1992-12-04,2005-05-03,null,null
5760,AMHERST ISLAND CDA EPF,QUE,47.2166666666667,-61.9666666666667,15.2,null,null,1957-05-01,1962-09-30,1959-01-01,1962-12-01
4607,AMHERSTBURG,ONT,42.1033583333333,-83.0944633333333,182,null,null,1988-07-01,2013-12-15,1988-01-01,2006-12-01
1811,AMISK,ALTA,52.6833333333333,-111.116666666667,701,null,null,1967-10-01,1974-12-31,1967-01-01,1974-12-01
6019,AMOS,QUE,48.5666666666667,-78.1333333333333,310,null,null,1913-06-01,2000-05-31,1913-01-01,2000-05-01
226,AMPHITRITE POINT,BC,48.9166666666667,-125.533333333333,10.7,null,null,1958-01-01,1980-04-30,1958-01-01,1980-12-01
227,AMPHITRITE POINT,BC,48.9211130555556,-125.541111944444,26.5,1980-05-01,2001-10-09,1980-05-01,2010-03-01,1980-01-01,1999-08-01
5761,AMQUI,QUE,48.5166666666667,-67.45,182.9,null,null,1957-03-01,1997-10-31,1957-01-01,1997-10-01
26887,AMQUI,QUE,48.4719444444444,-67.4347222222222,166,1995-08-24,2013-12-30,1996-08-22,2013-12-30,null,null
2841,AMULET,SASK,49.6166666666667,-104.733333333333,727.6,null,null,1970-12-01,2002-05-31,1970-01-01,2002-05-01
3273,AMYOT LAKE,SASK,53.7,-106.683333333333,0,null,null,1972-10-01,1972-12-31,1972-01-01,1972-12-01
503,ANAHIM LAKE,BC,52.35,-125.333333333333,1097.3,null,null,1954-09-01,1967-06-30,1954-01-01,1967-12-01
504,ANAHIM LAKE,BC,52.4666666666667,-125.316666666667,1108,null,null,1975-07-01,1994-03-31,1975-01-01,1994-12-01
505,ANAHIM LAKE 5 MILE RANCH,BC,52.5333333333333,-125.066666666667,1246,null,null,1980-09-01,1988-07-31,1980-01-01,1988-12-01
1812,ANDREW,ALTA,54.0166666666667,-112.233333333333,610,null,null,1973-06-01,2011-05-30,1973-01-01,2007-11-01
32253,ANDREW AGDM,ALTA,53.9169444444444,-112.279166666667,625,1998-04-08,2013-12-30,2002-12-01,2013-12-30,2002-12-01,2007-11-01
3069,ANEROID,SASK,49.7166666666667,-107.3,754.1,null,null,1916-05-01,2005-04-30,1916-01-01,2005-04-01
5574,ANGERS,QUE,45.55,-75.55,91,null,null,1962-01-01,2013-10-31,1962-01-01,2013-10-01
3206,ANGLIA,SASK,51.5666666666667,-108.166666666667,567.2,null,null,1913-04-01,1945-06-30,1913-01-01,1945-12-01
4403,ANGUS,ONT,44.3166666666667,-79.8666666666667,191.1,null,null,1930-02-01,1965-02-28,1930-01-01,1965-12-01
27001,ANGUS CAMPHILL,ONT,44.2833333333333,-79.85,212,null,null,1994-09-01,1997-11-30,1994-01-01,1997-11-01
1625,ANGUS TOWER,NWT,60.35,-114.283333333333,246.9,null,null,1968-06-01,1990-08-31,1968-01-01,1990-12-01
714,ANNACIS ISLAND,BC,49.1833333333333,-122.933333333333,4.6,null,null,1954-10-01,1962-03-31,1954-01-01,1962-12-01
6289,ANNAPOLIS ROYAL,NS,44.75,-65.5166666666667,7.7,null,null,1914-04-01,2007-06-04,1914-01-01,2006-02-01
1516,ANNIE LAKE ROBINSON,YT,60.4666666666667,-134.833333333333,820,null,null,1976-09-01,2006-05-31,1976-01-01,2006-05-01
3575,ANOLA,MAN,49.8833333333333,-96.65,255.1,null,null,1986-07-01,1987-10-31,1986-01-01,1987-12-01
5762,ANSE AU GRIFFON,QUE,48.9333333333333,-64.2833333333333,61,null,null,1973-09-01,1985-01-31,1973-01-01,1985-12-01
2462,ANSELL LO,ALTA,53.55,-116.5,968,null,null,1960-06-01,2011-09-01,1960-01-01,2007-09-01
2463,ANSELMO,ALTA,53.9666666666667,-115.416666666667,853.4,null,null,1990-05-01,2003-09-30,1990-01-01,2003-09-01
2362,ANTHRACITE,ALTA,51.2,-115.5,1386.8,null,null,1929-03-01,1962-02-28,1931-01-01,1962-12-01
5763,ANTICOSTI HEATH POINT,QUE,49.1,-61.7,9.1,null,null,1882-07-01,1935-09-30,1882-01-01,1935-12-01
5764,ANTICOSTI SW POINT,QUE,49.4,-63.55,7.3,null,null,1872-02-01,1954-10-31,1872-01-01,1954-12-01
5765,ANTICOSTI WEST POINT,QUE,49.8666666666667,-64.5333333333333,9.1,null,null,1882-08-01,1933-08-31,1882-01-01,1933-12-01
6291,ANTIGONISH,NS,45.6166666666667,-61.9833333333333,30.5,null,null,1979-07-01,1982-12-31,1979-01-01,1982-12-01
6290,ANTIGONISH,NS,45.6333333333333,-61.9666666666667,9.1,null,null,1880-12-01,1947-12-31,1880-01-01,1947-12-01
47247,ANTIGONISH SNOW,NS,45.6166666666667,-61.9,30,null,null,2009-01-01,2009-04-07,null,null
2039,ANTLER HILL,ALTA,52.05,-113.85,944.9,null,null,1973-07-01,1973-12-31,1973-01-01,1973-12-01
1517,ANVIL,YT,62.3666666666667,-133.383333333333,1158.2,null,null,1967-11-01,1991-03-31,1967-01-01,1991-11-01
294,ANVIL ISLAND,BC,49.5166666666667,-123.3,30.5,null,null,1956-10-01,1963-06-30,1956-01-01,1963-12-01
377,ANYOX,BC,55.4166666666667,-129.816666666667,112.8,null,null,1916-05-01,1935-06-30,1916-01-01,1935-12-01
2465,ANZAC,ALTA,56.45,-111.033333333333,495.3,null,null,1972-11-01,1979-07-31,1972-01-01,1979-12-01
2464,ANZAC,ALTA,56.45,-111.05,487.7,null,null,1950-10-01,1957-08-31,1950-01-01,1957-12-01
984,APEX MTN LODGE,BC,49.4,-119.916666666667,1889.8,null,null,1965-06-01,1971-09-30,1965-01-01,1971-12-01
4222,APPLE HILL,ONT,45.2166666666667,-74.75,91.4,null,null,1950-11-01,1961-11-30,1950-01-01,1961-12-01
6901,APPLETON,ONT,45.18584,-76.112805,133,null,null,1992-03-01,2013-12-17,1992-01-01,2006-12-01
4730,APPS MILL,ONT,43.1333333333333,-80.3833333333333,230.1,null,null,1972-10-01,1972-11-30,1972-01-01,1972-12-01
6292,APRIL BROOK IHD,NS,46.2333333333333,-61.1333333333333,61,null,null,1966-12-01,1976-01-31,1966-01-01,1976-12-01
5152,APSLEY,ONT,44.7666666666667,-78.0833333333333,274.3,null,null,1922-03-01,1957-03-31,1922-01-01,1957-12-01
982,ARAWANA,BC,49.5833333333333,-119.566666666667,518.2,null,null,1970-12-01,1976-06-30,1970-01-01,1976-12-01
3717,ARBORG,MAN,50.9333333333333,-97.0833333333333,224,null,null,1951-01-01,2013-12-29,1951-01-01,2007-11-01
3431,ARCHERWILL,SASK,52.4333333333333,-104.016666666667,556,null,null,1951-01-01,1982-11-30,1951-01-01,1982-12-01
2842,ARCOLA CDA EPF,SASK,49.6333333333333,-102.533333333333,603.5,null,null,1952-03-01,1993-06-30,1952-01-01,1993-12-01
2842,ARCOLA CDA EPF,SASK,49.6333333333333,-102.533333333333,603.5,null,null,1952-03-01,1993-06-30,1952-01-01,1993-12-01
48973,ARCTIC BAY,NU,73.0063888888889,-85.0472222222222,21.9,2011-01-13,2013-12-30,null,null,null,null
1732,ARCTIC BAY,NU,73.0333333333333,-85.15,11.3,1953-01-01,1976-12-22,1937-09-01,1976-12-31,1937-01-01,1976-12-01
49328,ARCTIC BAY A,NU,73.0063888888889,-85.0472222222222,21.9,2011-02-09,2012-07-26,null,null,null,null
50497,ARCTIC BAY A,NU,73.0063888888889,-85.0472222222222,21.9,2012-07-24,2013-12-30,null,null,null,null
29517,ARCTIC BAY CS,NU,72.9927777777778,-85.0122222222222,10,2000-02-19,2013-12-30,1999-11-01,2013-12-30,1999-11-01,2007-09-01
1626,ARCTIC RED RIVER,NWT,67.45,-133.733333333333,30.5,null,null,1974-06-01,1975-08-31,1974-01-01,1975-12-01
4223,ARDEN,ONT,44.7,-76.95,0,null,null,1895-08-01,1911-01-31,1895-01-01,1911-12-01
1099,ARGENTA,BC,50.1666666666667,-116.933333333333,548.6,null,null,1957-11-01,1974-06-30,1957-01-01,1974-12-01
10113,ARGENTIA (AUT),NFLD,47.2938888888889,-53.9933333333333,19,1987-01-01,2013-12-30,1992-12-01,2013-12-27,2004-01-01,2007-07-01
6557,ARGENTIA A,NFLD,47.3,-54,15.5,1976-05-01,1986-10-31,1976-05-01,1986-10-31,1976-01-01,1986-12-01
6556,ARGENTIA A,NFLD,47.3,-54,13.7,1953-01-01,1970-05-25,1945-03-01,1970-05-31,1945-01-01,1970-12-01
6293,ARGYLE HEAD,NS,43.8333333333333,-65.8666666666667,15.2,null,null,1981-06-01,1983-11-30,1981-01-01,1983-12-01
6521,ARGYLE SHORE,PEI,46.1666666666667,-63.35,15.2,null,null,1988-07-01,1991-11-30,1988-01-01,1991-11-01
4542,ARKONA,ONT,43.0333333333333,-81.9166666666667,182.9,null,null,1882-07-01,1915-03-31,1882-01-01,1915-12-01
2182,ARMADA EXP ST,ALTA,50.4,-112.683333333333,911.4,null,null,1955-01-01,1963-03-31,1955-01-01,1963-12-01
5766,ARMAGH,QUE,46.75,-70.5333333333333,358,null,null,1916-06-01,1994-05-31,1916-01-01,1994-12-01
5767,ARMAGH STATION,QUE,46.7166666666667,-70.6166666666667,312.4,null,null,1966-12-01,1986-11-30,1966-01-01,1986-12-01
1813,ARMENA,ALTA,53.1333333333333,-112.95,746.8,null,null,1969-06-01,1972-08-31,1969-01-01,1972-12-01
3432,ARMIT,SASK,52.8333333333333,-101.783333333333,308,null,null,1958-09-01,1994-10-31,1958-01-01,1994-12-01
3986,ARMSTRONG,ONT,50.2833333333333,-89.15,341.7,null,null,1926-05-01,1947-10-31,1926-01-01,1947-12-01
1226,ARMSTRONG,BC,50.45,-119.183333333333,359,null,null,1912-01-01,1992-09-30,1912-01-01,1992-12-01
7581,ARMSTRONG (AUT),ONT,50.3,-89.0333333333333,350.5,1994-02-01,1995-08-19,1994-10-31,1995-06-23,null,null
3987,ARMSTRONG (AUT),ONT,50.2936111111111,-88.9052777777778,322.5,1953-01-01,2013-12-30,1938-08-01,2013-12-27,1938-01-01,1982-12-01
985,ARMSTRONG GRANDVIEW,BC,50.4,-119.283333333333,502.9,null,null,1959-03-01,1960-06-30,1959-01-01,1960-12-01
1227,ARMSTRONG HULLCAR,BC,50.5,-119.216666666667,505,null,null,1971-07-01,1998-12-31,1971-01-01,1998-12-01
3988,ARMSTRONG JELLIEN,ONT,50.25,-89.1,341.4,null,null,1987-12-01,1992-10-31,1987-01-01,1992-12-01
1228,ARMSTRONG NORTH,BC,50.4666666666667,-119.133333333333,373,null,null,1972-10-01,1993-12-31,1972-01-01,1993-12-01
6943,ARMSTRONG OTTER LAKE,BC,50.4,-119.25,342.4,null,null,1991-04-01,1992-09-30,1991-01-01,1992-12-01
10206,ARNES,MAN,50.8,-96.95,221.1,1994-02-01,2000-10-06,null,null,null,null
2029,ARNESON,ALTA,51.2333333333333,-110.05,754.4,null,null,1983-04-01,1986-09-30,1983-01-01,1986-12-01
6558,ARNOLDS COVE,NFLD,47.75,-54,15.2,null,null,1971-07-01,1994-06-30,1971-01-01,1994-12-01
4224,ARNPRIOR,ONT,45.4333333333333,-76.3833333333333,99.1,null,null,1959-09-01,1964-01-31,1959-01-01,1963-12-01
4225,ARNPRIOR GRANDON,ONT,45.4166666666667,-76.3666666666667,106.7,null,null,1959-10-01,1999-09-30,1959-01-01,1999-09-01
6109,AROOSTOOK,NB,46.7122222222222,-67.7155555555556,80,null,null,1929-06-01,2013-12-03,1929-01-01,2005-02-01
3433,ARRAN,SASK,51.9666666666667,-101.733333333333,449.6,null,null,1957-10-01,1971-07-31,1957-01-01,1971-12-01
3434,ARRAN 23N,SASK,52.2,-101.633333333333,449.9,null,null,1970-06-01,1992-10-31,1970-01-01,1992-12-01
1391,ARRAS,BC,55.7333333333333,-120.533333333333,676.7,null,null,1970-04-01,1988-09-30,1970-01-01,1988-12-01
3462,ARROW RIVER,MAN,50.1666666666667,-100.85,486.2,null,null,1982-10-01,1983-08-31,1982-01-01,1983-12-01
2183,ARROWWOOD,ALTA,50.7333333333333,-113.15,936.3,null,null,1965-06-01,1975-07-31,1965-01-01,1975-12-01
5310,ARTHABASKA,QUE,46.0166666666667,-71.95,140,null,null,1969-10-01,2013-10-31,1969-01-01,2013-10-01
4731,ARTHUR,ONT,43.8166666666667,-80.5666666666667,452,null,null,1964-01-01,1988-01-31,1964-01-01,1987-12-01
6110,ARTHURETTE BIRCH RIDGE,NB,46.75,-67.4666666666667,214.9,null,null,1967-06-01,1983-09-30,1967-01-01,1983-12-01
3207,ARTLAND,SASK,52.7833333333333,-109.9,640.1,null,null,1983-01-01,2005-06-30,1983-01-01,2005-06-01
5575,ARUNDEL,QUE,45.95,-74.6166666666667,191.4,null,null,1963-12-01,2013-10-31,1963-01-01,2013-10-01
1708,ARVIAT A,NU,61.1,-94.0666666666667,10.4,1984-12-03,2012-10-11,1973-03-01,2010-12-30,1973-01-01,2007-11-01
50557,ARVIAT A,NU,61.0938888888889,-94.0716666666667,10.4,2012-07-18,2013-12-30,2012-07-27,2013-12-30,null,null
50718,ARVIAT A,NU,61.0938888888889,-94.0716666666667,10.4,2012-10-09,2013-12-30,null,null,null,null
47427,ARVIAT AWOS,NU,61.1,-94.0666666666667,10.4,2008-07-02,2012-07-26,2008-07-25,2012-07-26,null,null
41576,ARVIAT CLIMATE,NU,61.1,-94.0666666666667,9.8,2004-12-16,2013-12-30,2004-06-21,2013-12-30,2005-04-01,2007-11-01
5888,ARVIDA,QUE,48.4333333333333,-71.1666666666667,102.1,null,null,1931-07-01,1989-09-30,1931-01-01,1988-12-01
5311,ASBESTOS,QUE,45.7666666666667,-71.95,228.6,null,null,1948-05-01,1987-04-30,1948-01-01,1987-12-01
6087,ASBESTOS HILL,QUE,61.8,-73.95,483.7,null,null,1960-05-01,1963-11-30,1960-01-01,1963-12-01
228,ASH RIVER,BC,49.4666666666667,-125.083333333333,304.8,null,null,1957-07-01,1959-11-30,1958-01-01,1959-12-01
229,ASH RIVER GENERATING STN,BC,49.3666666666667,-125.15,91.4,null,null,1959-10-01,1969-06-30,1959-01-01,1969-12-01
1230,ASHCROFT,BC,50.7333333333333,-121.266666666667,331,null,null,1973-05-01,1989-11-30,1973-01-01,1989-12-01
1229,ASHCROFT,BC,50.7166666666667,-121.283333333333,304.8,null,null,1912-09-01,1970-01-31,1912-01-01,1969-12-01
48708,ASHCROFT,BC,50.7083347222222,-121.281389166667,327,2010-06-16,2013-12-30,2010-06-16,2013-12-30,null,null
1232,ASHCROFT M,BC,50.7166666666667,-121.333333333333,487.7,null,null,1944-11-01,1972-08-31,1944-01-01,1972-12-01
1231,ASHCROFT NORTH,BC,50.7333333333333,-121.266666666667,320,null,null,1980-08-01,1986-09-30,1980-01-01,1986-12-01
1233,ASHCROFT VENABLES VLY,BC,50.55,-121.333333333333,640,null,null,1984-06-01,1987-01-31,1984-01-01,1987-12-01
30681,ASHDALE,NS,45,-63.8833333333333,70.1,null,null,2000-12-01,2004-03-31,2000-12-01,2004-03-01
3771,ASHERN,MAN,51.1333333333333,-98.3666666666667,263,null,null,1951-01-01,1991-01-31,1951-01-01,1991-12-01
3767,ASHERN NORTHWEST,MAN,51.2,-98.3833333333333,266.7,null,null,1989-10-01,2001-02-28,1989-01-01,2001-02-01
4226,ASHTON,ONT,45.2,-75.9666666666667,136.9,null,null,1956-08-01,1956-09-30,1956-01-01,1956-12-01
6111,ASHTON HILL,NB,47.1,-65.7333333333333,278.9,null,null,1935-06-01,1947-08-31,1935-01-01,1947-12-01
4227,ASHTON STN SESIA FARM,ONT,45.1666666666667,-76.0666666666667,137.2,null,null,1959-08-01,1973-12-31,1959-01-01,1973-12-01
6767,ASHUANIPI,NFLD,52.5333333333333,-66.2333333333333,545.6,null,null,1948-10-01,1950-12-31,1948-01-01,1950-12-01
3772,ASHVILLE,MAN,51.2833333333333,-100.283333333333,320,null,null,1973-07-01,1979-10-31,1973-01-01,1979-12-01
3274,ASQUITH,SASK,52.1333333333333,-107.233333333333,519.4,null,null,1961-11-01,1981-09-30,1961-01-01,1981-12-01
3070,ASSINIBOIA,SASK,49.7333333333333,-105.966666666667,723.9,null,null,1915-06-01,1997-07-31,1915-01-01,1997-07-01
10805,ASSINIBOIA AIRPORT,SASK,49.7291916666667,-105.946113888889,725.5,1994-02-01,2013-12-30,1992-12-01,2013-12-30,1996-01-01,2007-11-01
2652,ASSUMPTION,ALTA,58.7,-118.716666666667,335.3,null,null,1973-09-01,1975-07-31,1973-01-01,1975-12-01
2651,ASSUMPTION,ALTA,58.7,-118.683333333333,304.8,null,null,1961-08-01,1970-03-31,1961-01-01,1970-12-01
2466,ATHABASCA,ALTA,54.7166666666667,-113.283333333333,515,null,null,1918-06-01,1967-09-30,1918-01-01,1967-12-01
2459,ATHABASCA 1,ALTA,54.7222230555556,-113.2880575,514.7,null,null,1986-08-01,2013-03-11,1986-01-01,2007-11-01
2467,ATHABASCA 2,ALTA,54.8216686111111,-113.539724166667,626.3,null,null,1952-06-01,2010-12-30,1952-01-01,2007-11-01
2468,ATHABASCA 3,ALTA,54.7166666666667,-113.283333333333,526.7,null,null,1973-11-01,1974-03-31,1973-01-01,1974-12-01
47047,ATHABASCA AGCM,ALTA,54.6347230555556,-113.381946666667,635,2008-06-05,2013-12-30,2008-06-05,2013-12-30,null,null
2469,ATHABASCA EXP ST,ALTA,54.7,-113.383333333333,579.1,null,null,1952-01-01,1957-12-31,1952-01-01,1957-12-01
2470,ATHABASCA LANDING,ALTA,54.7166666666667,-113.283333333333,502.9,null,null,1900-04-01,1927-07-31,1900-01-01,1927-12-01
2471,ATHABASCA LO,ALTA,53.4166666666667,-117.783333333333,1630.7,null,null,1954-06-01,2011-09-30,1954-01-01,2007-09-01
4228,ATHENS,ONT,44.65,-75.9166666666667,121.9,null,null,1969-06-01,1978-01-31,1969-01-01,1978-12-01
2653,ATIKAMEG,ALTA,55.9,-115.65,650.7,null,null,1959-06-01,1959-06-30,1959-01-01,1959-12-01
3929,ATIKOKAN,ONT,48.75,-91.6166666666667,395.3,1966-07-01,1988-10-28,1966-07-01,1988-10-31,1966-01-01,1988-12-01
10220,ATIKOKAN (AUT),ONT,48.7611111111111,-91.6280555555556,389.3,1994-02-01,2013-12-30,2000-12-13,2013-12-26,2005-02-01,2006-12-01
3930,ATIKOKAN CLI,ONT,48.7333333333333,-91.6333333333333,391.4,null,null,1914-07-01,1971-06-30,1914-01-01,1971-12-01
3931,ATIKOKAN MARMION,ONT,48.8,-91.5833333333333,442,null,null,1979-12-01,2007-07-30,1979-01-01,2006-12-01
1627,ATKINSON POINT,NWT,69.9333333333333,-131.4,3,null,null,1959-01-01,1963-08-31,1959-01-01,1963-12-01
2040,ATLEE,ALTA,50.8166666666667,-110.95,792.5,null,null,1982-06-01,1995-10-31,1982-01-01,1995-10-01
47787,ATLEE AGCM,ALTA,50.8100194444444,-111.005563888889,795,2009-02-13,2013-12-30,2009-02-13,2013-12-30,null,null
1485,ATLIN,BC,59.5666666666667,-133.7,673.6,null,null,1899-03-01,2013-12-29,1899-01-01,2007-02-01
2472,ATMORE,ALTA,54.8166666666667,-112.55,609.6,null,null,1973-06-01,1973-08-31,1973-01-01,1973-12-01
32231,ATMORE AGDM,ALTA,54.7816666666667,-112.825,574,1992-03-04,2013-12-30,2002-11-01,2013-12-30,2003-01-01,2007-11-01
506,ATNARKO PARKS CAMP,BC,52.4166666666667,-125.916666666667,289.9,null,null,1979-08-01,1981-08-31,1979-01-01,1981-12-01
3913,ATTAWAPISKAT,ONT,52.9166666666667,-82.45,9.1,null,null,1968-09-01,1968-11-30,1968-01-01,1968-12-01
2843,ATWATER,SASK,50.8166666666667,-102.216666666667,536.1,null,null,1977-03-01,2008-03-31,1977-01-01,2007-11-01
5312,AUDET,QUE,45.65,-70.7333333333333,513.6,null,null,1965-05-01,1985-01-31,1965-01-01,1985-12-01
27118,AULAVIK NATIONAL PARK,NWT,74.1388888888889,-119.988888888889,32,1996-08-21,2013-12-30,1996-08-21,2013-12-30,1998-02-01,2007-08-01
10855,AUPALUK A,QUE,59.3027777777778,-69.5997222222222,36.3,1992-11-25,2013-12-30,null,null,null,null
4855,AURORA,ONT,43.95,-79.4,270.1,null,null,1883-04-01,1919-05-31,1883-01-01,1919-12-01
4855,AURORA,ONT,43.95,-79.4,270.1,null,null,1883-04-01,1919-05-31,1883-01-01,1919-12-01
1814,AURORA LO,ALTA,52.65,-115.716666666667,1341.1,null,null,1968-06-01,2011-09-29,1968-01-01,2007-09-01
4856,AURORA MOE,ONT,44.0166666666667,-79.4666666666667,259.1,null,null,1980-09-01,1984-04-30,1980-01-01,1984-12-01
41803,AURORA NE,ONT,44.0166666666667,-79.45,260,null,null,2003-07-01,2009-11-27,2003-07-01,2006-12-01
4857,AURORA PAYMENT,ONT,43.9833333333333,-79.4666666666667,281.9,null,null,1971-09-01,1975-07-31,1971-01-01,1975-12-01
3773,AUSTIN,MAN,49.9,-98.9833333333333,327.7,null,null,1989-09-01,1995-08-31,1989-01-01,1995-08-01
5313,AUTEUIL,QUE,45.65,-73.7333333333333,53,null,null,1983-06-01,2013-10-31,1983-01-01,2013-10-01
1234,AVOLA,BC,51.7833333333333,-119.333333333333,609.6,null,null,1974-05-01,1982-02-28,1974-01-01,1982-12-01
6294,AVON,NS,44.8833333333333,-64.2166666666667,23.7,null,null,1949-11-01,2001-01-31,1949-01-01,2001-01-01
6921,AVONDALE,NS,45.0166666666667,-64.1166666666667,42.1,null,null,1993-05-01,2006-04-30,1993-01-01,2006-02-01
6559,AVONDALE CDA,NFLD,47.4166666666667,-53.2333333333333,132.6,null,null,1955-07-01,1996-09-30,1955-01-01,1996-09-01
2844,AVONLEA EXP ST,SASK,50.0166666666667,-105.05,601.1,null,null,1951-12-01,1955-07-31,1951-01-01,1955-12-01
4229,AVONMORE,ONT,45.1700116666667,-74.97084,91.4,null,null,1976-05-01,2006-06-30,1976-01-01,2006-06-01
2845,AYLESBURY,SASK,50.9333333333333,-105.7,579.1,null,null,1973-05-01,1980-01-31,1973-01-01,1980-12-01
2846,AYLESBURY CDA EPF,SASK,51,-105.666666666667,576.1,null,null,1951-07-01,1962-08-31,1951-01-01,1962-12-01
6295,AYLESFORD,NS,45.0333333333333,-64.8666666666667,39.9,null,null,1961-04-01,1984-02-29,1961-01-01,1984-12-01
4608,AYLMER,ONT,42.7666666666667,-80.9833333333333,228.6,null,null,1948-05-01,1981-12-31,1948-01-01,1981-12-01
27323,AYLMER,ONT,42.7666666666667,-80.9833333333333,232,null,null,1996-06-01,2004-02-29,1996-06-01,2004-02-01
4609,AYLMER 2,ONT,42.7666666666667,-81,231.6,null,null,1958-05-01,1961-03-31,1958-01-01,1961-12-01
4610,AYLMER ONT HYDRO,ONT,42.7833333333333,-80.9833333333333,235.9,null,null,1983-05-01,2000-08-31,1983-01-01,2000-08-01
3407,AYLSHAM,SASK,53.2,-103.8,362.1,null,null,1968-05-01,2005-04-30,1968-01-01,2005-04-01
4732,AYR,ONT,43.2833333333333,-80.45,289.6,null,null,1956-05-01,1961-07-31,1956-01-01,1961-12-01
4404,AYTON,ONT,44.0833333333333,-80.8333333333333,361,null,null,1988-05-01,1993-12-31,1988-01-01,1993-12-01
47727,AZURE,ALTA,50.5119444444444,-114.013061111111,1143,2008-11-26,2013-12-30,2008-11-26,2013-12-30,null,null
10187,BABBAGE RIVER (AUT),YT,68.8166666666667,-138.75,182.9,1988-01-01,1989-08-09,null,null,null,null
454,BABINE LAKE FISHERIES,BC,55.0666666666667,-126.533333333333,713.2,null,null,1912-09-01,1936-07-31,1912-01-01,1936-12-01
455,BABINE LAKE HALIFAX BAY,BC,55.05,-126.483333333333,711.7,null,null,1972-05-01,1973-10-31,1972-01-01,1973-12-01
456,BABINE LAKE PINKUT CREEK,BC,54.4463888888889,-125.459722222222,713.2,null,null,1968-12-01,2012-02-28,1969-01-01,2007-02-01
6296,BACCARO,NS,43.4666666666667,-65.4666666666667,3,null,null,1957-12-01,1979-06-30,1957-01-01,1979-12-01
10914,BACCARO POINT,NS,43.4494444444444,-65.4713888888889,12.7,1994-02-01,2009-05-20,2005-12-01,2007-07-31,null,null
46007,BACCARO PT,NS,43.4508333333333,-65.4716666666667,4.6,2007-06-07,2013-12-30,2007-06-01,2013-12-30,2007-06-01,2007-07-01
10882,BACHELORS ISLAND MARINE,MAN,51.75,-99.9,255.9,1994-02-01,2012-11-05,1994-07-06,2012-11-05,1996-04-01,2004-09-01
10723,BACK RIVER (AUT),NU,66.086115,-96.5108333333333,61,1994-02-01,2004-08-31,1995-01-31,2004-12-31,1999-01-01,2003-07-01
3208,BAD LAKE IHD 102,SASK,51.3166666666667,-108.416666666667,637,null,null,1971-07-01,1986-06-30,1971-01-01,1986-12-01
6297,BADDECK,NS,46.1,-60.75,7.6,null,null,1875-06-01,2000-01-31,1875-01-01,2000-01-01
30386,BADDECK BELL,NS,46.1,-60.75,16.6,null,null,2000-07-01,2010-10-14,2000-07-01,2006-02-01
6560,BADGER,NFLD,48.9833333333333,-56.05,100.6,null,null,1955-08-01,1967-04-30,1955-01-01,1967-12-01
6561,BADGER (AUT),NFLD,48.9666666666667,-56.0666666666667,102.7,1986-12-31,2013-12-30,1973-01-01,2013-12-30,1973-01-01,2007-07-01
6562,BADGER C,NFLD,48.9666666666667,-56.05,102,null,null,1988-09-01,1989-01-31,1988-01-01,1989-12-01
5889,BAGOTVILLE A,QUE,48.3333333333333,-71,159.1,1953-01-01,2013-12-30,1942-09-01,2013-12-30,1942-01-01,2012-12-01
5659,BAIE COMEAU,QUE,49.2333333333333,-68.1833333333333,68.6,null,null,1966-01-01,1980-06-30,1966-01-01,1980-12-01
5663,BAIE COMEAU CBA,QUE,49.2166666666667,-68.15,7.6,null,null,1958-09-01,1966-12-31,1958-01-01,1966-12-01
5757,BAIE DES SABLES,QUE,48.7,-67.8333333333333,99,null,null,1981-06-01,2004-04-30,1981-01-01,2004-04-01
5660,BAIE JOHAN BEETZ,QUE,50.2833333333333,-62.8,7.6,null,null,1965-07-01,2004-04-30,1965-01-01,2004-04-01
5664,BAIE ST PAUL,QUE,47.4166666666667,-70.5,32,null,null,1963-01-01,2004-04-30,1963-01-01,2004-04-01
6563,BAIE VERTE,NFLD,49.9833333333333,-56.1833333333333,110.3,null,null,1958-07-01,1995-06-30,1958-01-01,1995-06-01
6564,BAIE VERTE JUNCTION,NFLD,49.45,-56.4333333333333,78,null,null,1989-09-01,1994-07-31,1989-01-01,1994-12-01
6086,BAIE WAKEHAM,QUE,61.6,-71.9666666666667,6.1,null,null,1966-10-01,1967-02-28,1966-01-01,1967-12-01
26889,BAIE-COMEAU,QUE,49.2591666666667,-68.1458333333333,129.5,1995-05-29,2013-12-30,1996-01-31,2013-12-30,null,null
48968,BAIE-COMEAU,QUE,49.1325,-68.2044444444444,21.6,2010-11-15,2013-12-30,2010-11-18,2013-12-30,null,null
30173,BAIE-COMEAU A,QUE,49.1333333333333,-68.2,21.6,2004-04-07,2013-12-30,2005-01-01,2013-12-30,2005-01-01,2005-12-01
5662,BAIE-COMEAU A,QUE,49.1333333333333,-68.2,21.6,1956-07-02,2005-01-21,1947-06-01,2005-01-20,1947-01-01,2004-12-01
2473,BAIRD LAKE,ALTA,54.35,-114.433333333333,670.6,null,null,1981-06-01,1997-03-31,1981-01-01,1997-03-01
1709,BAKER LAKE A,NU,64.2988888888889,-96.0777777777778,18.6,1953-01-01,2013-11-14,1946-02-01,2013-11-13,1946-01-01,2012-12-01
51417,BAKER LAKE A,NU,64.2988888888889,-96.0777777777778,18.6,2013-11-12,2013-12-30,2013-11-12,2013-12-30,null,null
42583,BAKER LAKE CLIMATE,NU,64.3166666666667,-96,50.8,2004-07-01,2013-12-30,2004-06-02,2013-12-30,2005-05-01,2007-11-01
1392,BAKER MINE,BC,57.2,-126.95,1645.9,null,null,1980-11-01,1983-11-30,1980-01-01,1983-12-01
4405,BALA,ONT,45,-79.5,225.6,null,null,1883-07-01,1907-12-31,1883-01-01,1907-12-01
44967,BALACLAVA,ONT,44.6702833333333,-80.776675,222,null,null,2006-05-01,2013-12-30,2006-05-01,2006-12-01
2847,BALCARRES,SASK,50.7833333333333,-103.616666666667,576.1,null,null,1961-08-01,2010-03-18,1961-01-01,2007-11-01
2654,BALD MOUNTAIN LO,ALTA,54.8166666666667,-118.916666666667,938.8,null,null,1954-06-01,2011-09-01,1954-01-01,2007-09-01
1393,BALDONNEL,BC,56.2333333333333,-120.683333333333,685.8,null,null,1927-01-01,1993-10-31,1927-01-01,1993-12-01
3463,BALDUR,MAN,49.2763611111111,-99.2923611111111,449.9,null,null,1962-04-01,2013-10-27,1962-01-01,2007-11-01
6880,BALDUR 5 NORTHEAST,MAN,49.4166666666667,-99.1666666666667,425.3,null,null,1991-05-01,1995-07-31,1991-01-01,1995-07-01
43540,BALDWIN,ONT,44.266955,-79.3188966666667,229,null,null,2004-12-01,2013-12-29,2004-12-01,2006-12-01
567,BALDY HUGHES,BC,53.6166666666667,-122.95,1128.1,null,null,1980-08-01,1984-07-31,1980-01-01,1984-12-01
2363,BALDY LO,ALTA,52.55,-116.116666666667,2083.3,null,null,1960-06-01,2011-09-29,1960-01-01,2007-09-01
4858,BALLANTRAE,ONT,44.05,-79.3,327.7,null,null,1979-07-01,1992-08-31,1979-01-01,1992-12-01
2655,BALLATER,ALTA,55.5780563888889,-117.209445,563.8,null,null,1990-10-01,2013-12-29,1990-01-01,2007-11-01
49048,BALLATER AGCM,ALTA,55.5769444444444,-117.235555555556,560,2010-10-15,2013-12-30,null,null,null,null
138,BALLENAS ISLAND,BC,49.3502777777778,-124.160277777778,12.9,1994-02-01,2013-12-30,1966-12-01,2013-12-30,1967-01-01,2007-02-01
2474,BALM,ALTA,53.9166666666667,-115.25,777.2,null,null,1969-09-01,1974-04-30,1969-01-01,1974-12-01
6112,BALTIMORE,NB,45.8833333333333,-64.8166666666667,182.9,null,null,1982-02-01,1997-12-31,1982-01-01,1997-12-01
16,BAMBERTON OCEAN CEMENT,BC,48.5833333333333,-123.516666666667,85.3,null,null,1961-02-01,1980-11-30,1961-01-01,1980-12-01
230,BAMFIELD,BC,48.8333333333333,-125.1,21.3,null,null,1903-02-01,1956-09-30,1903-01-01,1956-12-01
231,BAMFIELD EAST,BC,48.8333333333333,-125.116666666667,4,null,null,1959-08-01,2001-09-30,1959-01-01,2001-09-01
232,BAMFIELD WEST,BC,48.8333333333333,-125.15,3,null,null,1955-10-01,1959-07-31,1955-01-01,1959-12-01
2475,BANANA BELT,ALTA,55.2,-116.416666666667,670.6,null,null,1971-10-01,1972-09-30,1971-01-01,1972-12-01
5153,BANCROFT,ONT,45.05,-77.85,326.7,null,null,1882-10-01,1985-12-31,1882-01-01,1985-12-01
26799,BANCROFT AUTO,ONT,45.0713888888889,-77.8788888888889,330.7,1995-05-02,2013-12-30,1995-06-20,2013-12-29,1997-07-01,2006-12-01
5154,BANCROFT L'AMABLE,ONT,45,-77.8,347,null,null,1985-06-01,1986-11-30,1985-01-01,1986-12-01
5155,BANCROFT OMNR,ONT,45.05,-77.8666666666667,344.4,null,null,1987-04-01,1990-10-31,1987-01-01,1990-12-01
2364,BANFF,ALTA,51.1833333333333,-115.566666666667,1383.7,1953-01-01,1995-03-31,1887-11-01,1995-03-31,1887-01-01,1995-03-01
8811,BANFF (AUT),ALTA,51.1833333333333,-115.566666666667,1396.9,1994-02-01,1997-12-02,1992-12-02,1997-12-16,null,null
27210,BANFF CR10,ALTA,51.2,-115.55,1397,null,null,1996-04-01,1997-11-30,1996-05-01,1997-11-01
27378,BANFF CS,ALTA,51.1933583333333,-115.552236111111,1396.9,1997-12-02,2013-12-30,1995-04-01,2013-12-30,1995-04-01,2007-11-01
31198,BANFF SPRINGS,ALTA,51.1666666666667,-115.55,1370,null,null,2001-09-01,2007-08-31,2001-09-01,2007-08-01
2848,BANGOR,SASK,50.9,-102.283333333333,526.4,null,null,1951-04-01,2005-02-28,1951-01-01,2005-02-01
6522,BANGOR,PEI,46.35,-62.6833333333333,36.6,null,null,1971-12-01,2004-03-31,1971-01-01,2004-03-01
986,BANKEIR,BC,49.7166666666667,-120.233333333333,1097.3,null,null,1954-08-01,1959-07-31,1954-01-01,1959-12-01
987,BANKIER CHAIN LAKE,BC,49.7,-120.283333333333,1020,null,null,1974-05-01,1991-08-31,1974-01-01,1991-11-01
2476,BAPTISTE LAKE,ALTA,54.7333333333333,-113.533333333333,575,null,null,1971-11-01,2000-10-31,1971-01-01,2000-10-01
4063,BAR RIVER,ONT,46.4333333333333,-84.05,180,null,null,1988-06-01,1992-10-31,1988-01-01,1992-12-01
3951,BARCLAY,ONT,49.8333333333333,-92.8166666666667,381.3,null,null,1885-05-01,1896-11-30,1885-01-01,1896-12-01
5576,BARK LAKE,QUE,46.5,-75.3333333333333,364.2,null,null,1912-11-01,1929-10-31,1912-01-01,1929-12-01
4230,BARK LAKE DAM,ONT,45.4166666666667,-77.8,335.3,null,null,1950-01-01,1971-10-31,1950-01-01,1971-12-01
568,BARKERVILLE,BC,53.0691666666667,-121.514722222222,1283,null,null,1888-02-01,2013-03-31,1888-01-01,2007-02-01
5307,BARNSTON,QUE,45.0833333333333,-71.8833333333333,445,null,null,1965-05-01,1982-03-31,1965-01-01,1982-12-01
31408,BARNWELL AGDM,ALTA,49.8,-112.3,824.2,2001-11-29,2013-12-30,2002-01-01,2013-12-30,2002-02-01,2007-11-01
46447,BARONS AGCM,ALTA,50.0258355555556,-113.224446944444,967,2006-12-30,2013-12-30,2007-05-01,2013-12-30,2007-05-01,2007-11-01
2184,BARONS EXP ST,ALTA,50.0333333333333,-113.166666666667,961,null,null,1955-01-01,1963-03-31,1955-01-01,1963-12-01
2184,BARONS EXP ST,ALTA,50.0333333333333,-113.166666666667,961,null,null,1955-01-01,1963-03-31,1955-01-01,1963-12-01
2185,BARONS EXP ST 2,ALTA,50,-112.916666666667,960.1,null,null,1956-05-01,1960-06-30,1956-01-01,1959-12-01
5946,BARRAGE A LAC KEMPT,QUE,47.55,-74.1833333333333,420.6,null,null,1913-01-01,1970-03-31,1913-01-01,1970-12-01
5976,BARRAGE ANGLIERS,QUE,47.5519444444444,-79.2358333333333,266.9,1996-06-21,2007-10-16,1911-02-01,2007-10-16,1911-01-01,1996-05-01
5975,BARRAGE CABONGA,QUE,47.3166666666667,-76.4666666666667,365.8,null,null,1929-08-01,1969-11-30,1929-01-01,1969-12-01
5947,BARRAGE CICONCINE,QUE,47.3833333333333,-73.0333333333333,205.7,null,null,1942-06-01,1967-03-31,1942-01-01,1967-12-01
5949,BARRAGE GOUIN,QUE,48.35,-74.1,403.9,null,null,1913-05-01,1982-12-31,1913-01-01,1981-12-01
5945,BARRAGE GOUIN S,QUE,48.35,-74.1,403.9,null,null,1973-06-01,1974-08-31,1973-01-01,1974-12-01
5768,BARRAGE LAC MORIN,QUE,47.65,-69.5166666666667,198.1,null,null,1942-12-01,1984-06-30,1942-01-01,1984-12-01
5950,BARRAGE MATTAWIN,QUE,46.85,-73.65,365.8,null,null,1929-11-01,1982-12-31,1929-01-01,1982-12-01
5577,BARRAGE MERCIER,QUE,46.7166666666667,-75.9833333333333,236.2,null,null,1927-01-01,1980-05-31,1927-01-01,1980-12-01
5769,BARRAGE MISTIGOUGECHE,QUE,48.1833333333333,-68.0166666666667,320,null,null,1961-08-01,1966-11-30,1961-01-01,1966-12-01
5578,BARRAGE MITCHINAMECUS,QUE,47.2166666666667,-75.1666666666667,390.1,null,null,1941-07-01,1967-10-31,1941-01-01,1967-12-01
5770,BARRAGE MITIS,QUE,48.3333333333333,-67.9,266.7,null,null,1926-07-01,1966-06-30,1926-01-01,1966-12-01
5951,BARRAGE MONDONAC,QUE,47.45,-73.9333333333333,457.2,null,null,1943-05-01,1966-08-31,1943-01-01,1966-12-01
5977,BARRAGE TEMISCAMINGUE,QUE,46.7097222222222,-79.1011111111111,181.4,1997-09-24,2013-12-30,1910-04-01,2013-12-30,1910-01-01,1995-10-01
6020,BARRAUTE,QUE,48.3666666666667,-77.65,305,null,null,1958-12-01,1994-05-31,1959-01-01,1994-12-01
4231,BARRETT CHUTE,ONT,45.25,-76.7666666666667,160,null,null,1950-05-01,1968-10-31,1950-01-01,1968-12-01
2477,BARRHEAD,ALTA,54.1166666666667,-114.366666666667,644,null,null,1974-10-01,1976-11-30,1974-01-01,1976-12-01
30641,BARRHEAD CS,ALTA,54.0947222222222,-114.4475,648,2000-12-04,2013-12-29,2000-12-01,2013-12-27,2001-01-01,2007-11-01
4406,BARRIE,ONT,44.4,-79.6833333333333,228.6,null,null,1866-01-01,1958-06-30,1866-01-01,1958-12-01
7697,BARRIE (AUT),ONT,44.3833333333333,-79.7833333333333,295,1994-02-01,2003-12-19,1992-12-02,2003-12-19,null,null
6298,BARRIE BROOK,NS,45.65,-61.4333333333333,10.7,null,null,1950-02-01,1972-01-31,1950-01-01,1972-12-01
4407,BARRIE CKVR,ONT,44.35,-79.7,312.4,null,null,1960-03-01,1961-02-28,1960-01-01,1961-12-01
50048,BARRIE LANDFILL,ONT,44.3852777777778,-79.7361111111111,305,null,null,2011-06-24,2013-12-30,null,null
4408,BARRIE WPCC,ONT,44.3758366666667,-79.689725,221,null,null,1968-05-01,2009-06-28,1968-01-01,2006-12-01
42183,BARRIE-ORO,ONT,44.4833333333333,-79.55,289,2003-10-30,2013-12-28,2003-11-12,2013-12-27,2003-12-01,2006-12-01
27295,BARRIER LAKE,ALTA,51.05,-115.078333333333,2020.5,null,null,1995-05-01,2011-09-01,1995-05-01,2007-09-01
1235,BARRIERE,BC,51.1833333333333,-120.116666666667,415,null,null,1955-11-01,1996-10-31,1955-01-01,1996-10-01
5661,BARRIERE CLERMONT,QUE,47.7,-70.2166666666667,83.8,null,null,1973-06-01,1978-07-31,1973-01-01,1978-12-01
5885,BARRIERE ETIENNICHE,QUE,49.45,-71.3833333333333,320,null,null,1973-06-01,1975-05-31,1973-01-01,1975-12-01
5658,BARRIERE JALBERT,QUE,48.45,-70.7,175.3,null,null,1972-12-01,1975-03-31,1972-01-01,1975-12-01
6021,BARRIERE LOUVICOURT,QUE,47.8666666666667,-77.3333333333333,317.3,null,null,1963-01-01,1974-06-30,1963-01-01,1974-12-01
5884,BARRIERE MILOT,QUE,48.9,-71.7666666666667,167.6,null,null,1973-06-01,1980-09-30,1973-01-01,1980-12-01
5758,BARRIERE MISTIGOUGECHE,QUE,48.2,-68.0666666666667,312.4,null,null,1967-10-01,1967-10-31,1967-01-01,1967-12-01
5756,BARRIERE MITIS,QUE,48.3666666666667,-67.9333333333333,236.2,null,null,1966-11-01,1982-03-31,1966-01-01,1982-12-01
5891,BARRIERE N CHIBOUGAMAU,QUE,49.5,-74.1666666666667,396.2,null,null,1963-02-01,1974-05-31,1963-01-01,1973-12-01
1236,BARRIERE NORTH,BC,51.2333333333333,-120.15,388.6,null,null,1970-09-01,1984-09-30,1970-01-01,1984-12-01
5579,BARRIERE QUINN,QUE,46.7166666666667,-76.0666666666667,256.3,null,null,1963-01-01,1973-05-31,1963-01-01,1973-12-01
5944,BARRIERE ST GUILLAUME,QUE,46.6,-74.1666666666667,411.5,null,null,1973-01-01,1973-10-31,1973-01-01,1973-12-01
5205,BARRIERE STONEHAM,QUE,47.1666666666667,-71.25,597.4,null,null,1963-01-01,1976-03-31,1963-01-01,1976-12-01
5890,BARRIERE SUD LA DORE,QUE,48.8166666666667,-72.7333333333333,198.1,null,null,1963-02-01,1975-05-31,1963-01-01,1975-12-01
5206,BARRIERE TOURILLI,QUE,47.1666666666667,-71.6166666666667,493.8,null,null,1949-08-01,1960-09-30,1949-01-01,1960-12-01
10969,BARRINGTON CCR,NS,43.4522222222222,-65.4722222222222,21,1994-02-01,1996-01-20,null,null,null,null
4232,BARRY'S BAY,ONT,45.4333333333333,-77.6666666666667,289.6,null,null,1976-10-01,1982-09-30,1976-01-01,1982-12-01
6022,BARVILLE,QUE,48.4166666666667,-77.4666666666667,318.5,null,null,1953-08-01,1957-08-31,1953-01-01,1957-12-01
3932,BARWICK,ONT,48.6333333333333,-93.9666666666667,335,null,null,1978-12-01,2013-12-27,1978-01-01,2006-12-01
6915,BAS CARAQUET,NB,47.8022222222222,-64.8333333333333,5,1994-02-01,2013-12-30,1993-09-01,2013-12-30,1993-01-01,2007-07-01
6113,BAS CARAQUET,NB,47.8,-64.8666666666667,10.7,null,null,1982-06-01,2013-12-29,1982-01-01,2006-02-01
1815,BASELINE LO,ALTA,52.1333333333333,-115.416666666667,1897.1,null,null,1961-06-01,2011-09-29,1961-01-01,2007-09-01
1816,BASHAW,ALTA,52.6833333333333,-112.866666666667,792.5,null,null,1906-11-01,1922-10-31,1906-01-01,1922-12-01
2041,BASHAW,ALTA,52.6,-112.983333333333,800.1,null,null,1971-02-01,1975-09-30,1971-01-01,1975-12-01
2648,BASNETT,ALTA,57.3666666666667,-119.816666666667,760,null,null,1989-07-01,2011-09-01,1989-01-01,2007-09-01
46467,BASSANO AGCM,ALTA,50.8925013888889,-112.4650025,807,2007-09-11,2013-12-30,2007-05-01,2013-12-30,2007-05-01,2007-11-01
2186,BASSANO DAM,ALTA,50.7833333333333,-112.466666666667,800.1,null,null,1914-11-01,1935-12-31,1914-01-01,1935-12-01
2187,BASSANO GEM,ALTA,50.9,-112.2,751,null,null,1916-05-01,1935-12-31,1916-01-01,1935-12-01
2656,BASSET LO,ALTA,58.2,-118.216666666667,755.3,null,null,1966-05-01,2011-08-21,1966-01-01,2007-08-01
6894,BASSWOOD,MAN,50.25,-100.033333333333,582.8,null,null,1992-10-01,1996-08-31,1992-01-01,1996-08-01
6114,BATHURST,NB,47.6166666666667,-65.65,12.2,null,null,1872-07-01,1972-01-31,1872-01-01,1972-12-01
6115,BATHURST,NB,47.6166666666667,-65.65,4.6,null,null,1964-07-01,1992-06-30,1964-01-01,1992-12-01
51418,BATHURST A,NB,47.6297222222222,-65.7388888888889,58.8,2013-09-10,2013-12-30,2013-10-10,2013-12-30,null,null
6916,BATHURST A,NB,47.6291805555556,-65.7483388888889,58.8,1994-02-01,2013-10-10,1992-07-01,2013-10-09,1992-01-01,2012-12-01
50657,BATHURST INLET,NU,66.8375138888889,-108.014730555556,5,2012-08-07,2013-12-30,2012-08-07,2013-12-30,null,null
1628,BATHURST INLET,NU,66.8333333333333,-108.016666666667,13.4,null,null,1958-02-01,1962-08-31,1958-01-01,1962-12-01
1733,BATHURST ISLAND,NU,75.7166666666667,-98.4166666666667,3,null,null,1971-05-01,1979-08-31,1971-01-01,1979-12-01
2175,BATTLE CREEK LO,ALTA,49.65,-109.983333333333,1310.6,null,null,1974-07-01,1978-09-30,1974-01-01,1978-12-01
6768,BATTLE HARBOUR,NFLD,52.2833333333333,-55.5833333333333,15.2,null,null,1947-09-01,1983-06-30,1947-01-01,1983-12-01
6769,BATTLE HARBOUR LOR,NFLD,52.25,-55.6,9.4,1957-10-01,1983-10-17,1957-10-01,1983-10-31,1957-01-01,1983-12-01
6770,BATTLE HARBOUR MARYS R,NFLD,52.3166666666667,-55.8333333333333,6.1,null,null,1956-12-01,1983-05-31,1956-01-01,1983-12-01
42164,BATTLE HEADWATERS,ALTA,52.9305555555556,-114.195,654,null,null,2003-09-01,2007-11-30,2003-10-01,2007-11-01
26859,BATTLE ISLAND,ONT,48.75,-87.55,197,1994-08-08,1997-01-06,null,null,null,null
2657,BATTLE RIVER LO,ALTA,57.4833333333333,-117.65,731.5,null,null,1955-05-01,2011-09-22,1955-01-01,2007-09-01
3209,BATTLEFORD,SASK,52.6833333333333,-108.333333333333,493.8,null,null,1879-11-01,1942-03-31,1891-01-01,1941-12-01
46608,BATTLEFORDS UNION HOSPITAL SNOW,SASK,52.7725,-108.288333333333,529,null,null,2007-10-01,2008-04-29,2007-10-01,2007-11-01
6565,BAY D'ESPOIR 1,NFLD,47.8833333333333,-55.8333333333333,11.3,null,null,1965-03-01,1965-04-30,1965-01-01,1965-12-01
6566,BAY D'ESPOIR 2,NFLD,47.9833333333333,-55.8,22.9,null,null,1965-06-01,1967-07-31,1965-01-01,1967-12-01
6567,BAY D'ESPOIR GEN STN,NFLD,47.9833333333333,-55.8,22.9,null,null,1967-11-01,2013-12-28,1967-01-01,2006-02-01
6568,BAY D'ESPOIR LONG POND,NFLD,47.9833333333333,-55.8166666666667,169.2,null,null,1982-08-01,1997-04-30,1982-01-01,1997-04-01
6569,BAY D'ESPOIR ST ALBANS,NFLD,47.9666666666667,-55.85,229.8,null,null,1966-02-01,1968-10-31,1966-01-01,1968-12-01
1167,BAYNES LAKE KOOTENAY RIVER,BC,49.2260277777778,-115.2205,800,null,null,1986-02-01,2013-05-31,1986-01-01,2007-02-01
6299,BAYSWATER,NS,44.5,-64.0833333333333,30.5,null,null,1990-12-01,1994-10-31,1990-01-01,1994-12-01
3350,BEACON HILL,SASK,54.3352794444444,-109.626112222222,533.4,null,null,1983-02-01,2013-12-27,1983-01-01,2007-11-01
17,BEAR CREEK,BC,48.5,-124,350.5,null,null,1910-11-01,1971-08-31,1910-01-01,1971-12-01
4190,BEAR ISLAND,ONT,46.9833333333333,-80.0833333333333,293.8,null,null,1916-05-01,1962-05-31,1916-01-01,1962-12-01
6300,BEAR RIVER,NS,44.5666666666667,-65.6333333333333,7.6,null,null,1952-11-01,2006-02-28,1952-01-01,2006-02-01
1629,BEAR TOWER,NWT,60.5166666666667,-113.233333333333,213.4,null,null,1989-05-01,1990-08-31,1989-01-01,1990-12-01
2042,BEARBERRY,ALTA,51.9,-114.866666666667,1158.2,null,null,1969-10-01,1970-02-28,1969-01-01,1970-12-01
3989,BEARDMORE,ONT,49.6166666666667,-87.95,304.8,null,null,1973-11-01,1986-10-31,1973-01-01,1986-12-01
1486,BEARSKIN LAKE,BC,58.2166666666667,-132.266666666667,958,null,null,1983-11-01,1990-01-31,1983-01-01,1989-12-01
10713,BEARTOOTH ISLAND,SASK,59.2166666666667,-109.7,238,1994-02-01,2001-07-11,1994-12-30,2001-07-11,1998-05-01,2000-06-01
4409,BEATRICE,ONT,45.1333333333333,-79.3833333333333,289.6,null,null,1876-03-01,1979-02-28,1876-01-01,1979-12-01
4410,BEATRICE 2,ONT,45.1333333333333,-79.4,297.2,null,null,1979-09-01,2008-09-29,1979-01-01,2006-12-01
44183,BEATRICE CLIMATE,ONT,45.1402777777778,-79.4027777777778,297.2,2005-09-28,2013-12-30,2005-09-28,2013-12-27,2005-11-01,2006-12-01
1394,BEATTON RIVER,BC,57.2166666666667,-121.466666666667,807.7,null,null,1977-04-01,1979-08-31,1977-01-01,1979-12-01
1395,BEATTON RIVER A,BC,57.3833333333333,-121.383333333333,839.7,1953-01-01,1967-07-11,1944-12-01,1967-07-31,1944-01-01,1967-12-01
3275,BEATTY,SASK,52.8666666666667,-104.85,451.1,null,null,1953-10-01,1956-08-31,1953-01-01,1956-12-01
5314,BEAUCEVILLE,QUE,46.2,-70.7666666666667,160,null,null,1913-08-01,1985-01-31,1913-01-01,1985-12-01
26777,BEAUCEVILLE,QUE,46.205,-70.785,229.2,1994-07-28,2013-12-30,1994-07-28,2013-12-30,null,null
10948,BEAUHARNOIS,QUE,45.1666666666667,-73.9166666666667,33.9,1994-04-04,1994-10-31,null,null,null,null
42007,BEAUHARNOIS,QUE,45.3194444444444,-73.9122222222222,22,2003-10-07,2006-07-26,null,null,null,null
5207,BEAUPORT,QUE,46.8833333333333,-71.2,84.1,null,null,1982-07-01,1985-05-31,1982-01-01,1985-12-01
5207,BEAUPORT,QUE,46.8833333333333,-71.2,84.1,null,null,1982-07-01,1985-05-31,1982-01-01,1985-12-01
27803,BEAUPORT,QUE,46.8369444444444,-71.1972222222222,10,1999-08-19,2013-12-30,1999-08-19,2013-12-30,null,null
5315,BEAUSEJOUR,QUE,46.6666666666667,-71.1666666666667,106.7,null,null,1975-08-01,2013-10-31,1975-01-01,2013-10-01
3718,BEAUSEJOUR,MAN,50.1333333333333,-96.2166666666667,302.4,1959-11-02,1985-12-31,1960-03-01,1979-11-30,1960-01-01,1979-12-01
3719,BEAUSEJOUR 2,MAN,50.0333333333333,-96.4666666666667,251.2,null,null,1953-05-01,2005-03-31,1953-01-01,2005-03-01
10973,BEAUSOLEIL,ONT,44.85,-79.8666666666667,183,1994-02-01,2007-08-28,1994-12-30,2007-08-28,2004-01-01,2006-12-01
8753,BEAUVAIS PARK,ALTA,49.4166666666667,-114.1,1524,null,null,1998-02-01,2007-11-30,1998-05-01,2007-11-01
3775,BEAVER,MAN,50.05,-98.7,268.2,null,null,1973-05-01,2013-10-10,1973-01-01,2007-11-01
3774,BEAVER,MAN,50.0166666666667,-98.7,262.7,null,null,1887-06-01,1907-10-31,1887-01-01,1907-12-01
6871,BEAVER CREEK,SASK,51.9666666666667,-106.7,487.7,null,null,1992-05-01,2000-02-29,1992-01-01,2000-02-01
1518,BEAVER CREEK A,YT,62.4102777777778,-140.8675,649,1968-12-01,2013-12-30,1968-11-01,2012-12-31,1968-01-01,2006-02-01
6848,BEAVER CREEK YTG,YT,62.3666666666667,-140.866666666667,663,null,null,1993-09-01,2008-08-25,1993-01-01,2007-02-01
1817,BEAVER HILLS WEST,ALTA,53.5333333333333,-112.533333333333,769.6,null,null,1897-12-01,1908-11-30,1897-01-01,1908-12-01
10078,BEAVER ISLAND (AUT),NS,44.8166666666667,-62.3333333333333,16,1994-02-01,2013-12-30,1992-12-19,2013-12-30,null,null
18,BEAVER LAKE,BC,48.5,-123.35,61,null,null,1894-12-01,1952-06-30,1894-01-01,1952-12-01
2478,BEAVER LAKE RS,ALTA,54.75,-112.95,563.9,null,null,1980-06-01,1995-10-31,1980-01-01,1995-10-01
2366,BEAVER MINES,ALTA,49.4672277777778,-114.176955555556,1257,null,null,1912-11-01,2012-03-31,1912-01-01,2007-11-01
50028,BEAVER MINES,ALTA,49.4679166666667,-114.175,1257,2012-02-02,2013-12-30,2012-02-07,2013-12-30,null,null
6301,BEAVERBANK,NS,44.9,-63.7166666666667,182.9,null,null,1871-09-01,1964-03-31,1871-01-01,1964-12-01
1077,BEAVERDELL,BC,49.4226666666667,-119.105,780,null,null,1925-09-01,2000-10-31,1925-01-01,2000-10-01
1078,BEAVERDELL NORTH,BC,49.4783333333333,-119.047,838.2,null,null,1975-05-01,2006-09-30,1975-01-01,2006-09-01
10935,BEAVERLODGE CDA,ALTA,55.2,-119.4,745,1996-08-16,2002-01-18,1996-08-16,2002-01-17,null,null
2658,BEAVERLODGE CDA,ALTA,55.2,-119.4,744.9,null,null,1913-04-01,2007-05-31,1913-01-01,2006-07-01
30669,BEAVERLODGE RCS,ALTA,55.1966672222222,-119.396413888889,745,2001-02-14,2013-12-30,2001-01-01,2013-12-30,2001-01-01,2007-11-01
2659,BEAVERLODGE REDLOW,ALTA,55.3333333333333,-119.4,426.7,null,null,1912-01-01,1930-06-30,1912-01-01,1930-12-01
4411,BEAVERTON,ONT,44.4166666666667,-79.15,230.1,null,null,1948-03-01,1959-08-31,1948-01-01,1959-12-01
5316,BECANCOUR,QUE,46.3333333333333,-72.4333333333333,14.9,null,null,1966-10-01,1994-05-31,1966-01-01,1994-12-01
2849,BECHARD,SASK,50.05,-104.216666666667,577.6,null,null,1974-05-01,1982-01-31,1974-01-01,1982-12-01
19,BECHER BAY,BC,48.3333333333333,-123.633333333333,12.2,null,null,1956-12-01,1966-04-30,1956-01-01,1966-12-01
3464,BEDE,MAN,49.3666666666667,-100.933333333333,442,null,null,1956-10-01,1977-07-31,1956-01-01,1977-12-01
6302,BEDFORD,NS,44.7333333333333,-63.6666666666667,30.5,null,null,1954-12-01,1966-05-31,1955-01-01,1966-12-01
43406,BEDFORD BASIN,NS,44.70778,-63.6341669444444,3.5,2004-01-17,2013-12-30,null,null,null,null
26824,BEDFORD MWO,NS,44.7333333333333,-63.6666666666667,32.9,1995-03-22,1998-09-09,null,null,null,null
43123,BEDFORD RANGE,NS,44.7458583333333,-63.6616888888889,9.6,2004-09-24,2013-12-30,null,null,null,null
6116,BEECHWOOD,NB,46.5333333333333,-67.6666666666667,91.4,null,null,1966-04-01,1997-04-30,1966-01-01,1997-04-01
3071,BEECHY,SASK,50.8319611111111,-107.311397222222,659.9,null,null,1926-01-01,2013-12-30,1926-01-01,2007-11-01
4412,BEETON,ONT,44.1,-79.7833333333333,232.9,null,null,1916-11-01,1970-01-31,1916-01-01,1970-12-01
4413,BEETON ASSAGI,ONT,44.1166666666667,-79.7666666666667,221,null,null,1975-03-01,1976-11-30,1975-01-01,1976-12-01
4414,BEETON GRAHAM,ONT,44.0833333333333,-79.7833333333333,228.6,null,null,1971-09-01,1984-12-31,1971-01-01,1984-12-01
4415,BEETON WATSON,ONT,44.0666666666667,-79.85,251.5,null,null,1968-04-01,1971-07-31,1968-01-01,1971-12-01
46468,BEISEKER AGCM,ALTA,51.3786130555556,-113.3572225,896,2007-09-11,2013-12-30,2007-05-01,2013-12-30,2007-05-01,2007-11-01
2043,BEISEKER VILLAGE,ALTA,51.3833333333333,-113.533333333333,916,null,null,1984-12-01,1985-10-31,1984-01-01,1985-12-01
4543,BELGRAVE,ONT,43.8,-81.3833333333333,335.3,null,null,1962-04-01,1964-12-31,1962-01-01,1964-12-01
5580,BELL FALLS,QUE,45.7666666666667,-74.6833333333333,121.9,null,null,1919-01-01,1994-05-31,1919-01-01,1994-12-01
49388,BELLA BELLA,BC,52.185,-128.156666666667,43,2011-08-22,2013-12-30,2011-08-25,2013-12-30,null,null
378,BELLA BELLA,BC,52.1666666666667,-128.15,12.2,null,null,1933-04-01,1977-10-31,1933-01-01,1977-12-01
44766,BELLA BELLA A,BC,52.185,-128.156666666667,43,2007-01-31,2011-08-25,2006-04-01,2011-08-25,2006-04-01,2007-02-01
379,BELLA BELLA SHEARWATER,BC,52.15,-128.083333333333,12.2,null,null,1960-04-01,1964-06-30,1960-01-01,1964-12-01
380,BELLA COOLA,BC,52.3705555555556,-126.685,18.3,null,null,1895-05-01,2002-10-31,1895-01-01,2002-10-01
381,BELLA COOLA A,BC,52.3875,-126.595833333333,35.7,1983-02-01,2013-08-15,1983-02-01,2013-12-29,1983-01-01,2007-02-01
51419,BELLA COOLA A,BC,52.3875,-126.595833333333,35.7,2013-08-15,2013-12-30,null,null,null,null
382,BELLA COOLA BC HYDRO,BC,52.3666666666667,-126.816666666667,13.7,null,null,1961-08-01,1985-11-30,1961-01-01,1985-12-01
6771,BELLE ISLE,NFLD,51.8833333333333,-55.3833333333333,129.8,1953-01-01,1969-12-31,1871-08-01,1969-12-31,1871-01-01,1969-12-01
5952,BELLE PLAGE,QUE,48.6833333333333,-74.0166666666667,411.5,null,null,1975-06-01,1985-09-30,1975-01-01,1985-12-01
2850,BELLE PLAINE,SASK,50.45,-105.2,582.2,null,null,1978-10-01,1983-10-31,1978-01-01,1983-12-01
10084,BELLE RIVER,ONT,42.3,-82.7,183.5,1994-02-01,2005-03-07,1994-12-30,2005-03-07,null,null
6117,BELLEDUNE,NB,47.9,-65.8333333333333,7.6,null,null,1971-01-01,1990-06-30,1971-01-01,1990-12-01
6917,BELLEDUNE CS,NB,47.9,-65.8333333333333,7.6,null,null,1991-11-01,2002-08-31,1991-01-01,2002-08-01
5978,BELLETERRE,QUE,47.3833333333333,-78.7,321.6,null,null,1951-09-01,2004-04-30,1951-01-01,2004-04-01
4859,BELLEVILLE,ONT,44.15057,-77.394735,76.2,null,null,1866-01-01,2013-12-29,1866-01-01,2006-12-01
4860,BELLEVILLE OWRC,ONT,44.1666666666667,-77.3666666666667,77.7,null,null,1959-09-01,1975-08-31,1959-01-01,1975-12-01
4861,BELLEVILLE PAR LAB,ONT,44.1666666666667,-77.35,88.4,null,null,1929-08-01,1959-06-30,1929-01-01,1959-12-01
1819,BELLIS,ALTA,54.1333333333333,-112.15,660.6,null,null,1979-11-01,1992-09-30,1979-01-01,1992-12-01
1818,BELLIS,ALTA,54.1833333333333,-112.166666666667,685.8,null,null,1961-07-01,1969-11-30,1961-01-01,1969-12-01
4233,BELLROCK,ONT,44.4833333333333,-76.7666666666667,146.3,null,null,1957-05-01,1978-08-31,1957-01-01,1978-12-01
6952,BELLS CORNERS,ONT,45.3333333333333,-75.8166666666667,75,null,null,1991-05-01,1991-05-31,1991-01-01,1991-12-01
46128,BELLSHILL AGCM,ALTA,52.5822241666667,-111.465279722222,721,2007-06-27,2013-12-30,2007-06-27,2013-12-30,null,null
3465,BELMONT,MAN,49.4,-99.4333333333333,447.4,null,null,1891-11-01,1906-07-31,1891-01-01,1906-12-01
3466,BELMONT,MAN,49.3,-99.45,481.6,null,null,1984-08-01,2013-12-28,1984-01-01,2007-11-01
2044,BENALTO,ALTA,52.3,-114.266666666667,963.5,null,null,1962-07-01,1963-07-31,1962-01-01,1963-12-01
3163,BENGOUGH,SASK,49.3833333333333,-105.133333333333,688.7,null,null,1982-12-01,1997-10-31,1982-01-01,1997-10-01
1487,BENNETT,BC,59.85,-134.983333333333,662,null,null,1972-09-01,1974-07-31,1974-01-01,1974-12-01
4106,BENNY,ONT,46.5166666666667,-81.6333333333333,386.8,null,null,1948-11-01,1956-09-30,1948-01-01,1956-12-01
2851,BENSON,SASK,49.45,-102.983333333333,588,null,null,1973-05-01,2006-01-31,1973-01-01,2006-01-01
233,BENSON LAKE,BC,50.3666666666667,-127.233333333333,144.8,null,null,1959-06-01,1972-12-31,1959-01-01,1972-12-01
6570,BENTON,NFLD,48.9,-54.4166666666667,48,null,null,1988-07-01,1993-12-31,1988-01-01,1993-12-01
3720,BERENS RIVER,MAN,52.35,-97.0333333333333,217.3,null,null,1905-01-01,1964-12-31,1905-01-01,1964-12-01
26964,BERENS RIVER A,MAN,52.3588888888889,-97.0183333333333,222.2,1995-11-20,2013-12-30,null,null,null,null
3721,BERENS RIVER CS,MAN,52.3597366666667,-97.0219533333333,221.9,1985-05-14,2013-12-30,1985-07-01,2013-12-30,1985-01-01,2007-10-01
3933,BERGLAND,ONT,48.95,-94.35,363.9,null,null,1980-01-01,1981-08-31,1980-01-01,1981-12-01
2479,BERLAND LO,ALTA,54.0833333333333,-117.4,1231,null,null,1958-05-01,2011-09-01,1958-01-01,2007-09-01
1630,BERNARD HARBOUR,NU,68.7833333333333,-114.833333333333,64.6,1992-12-31,1993-04-27,1959-01-01,1993-02-26,1959-01-01,1963-12-01
2480,BERNY,ALTA,54.75,-112.35,579.1,null,null,1981-05-01,1981-05-31,1981-01-01,1981-12-01
2045,BERRY CREEK,ALTA,51.0166666666667,-111.033333333333,732,null,null,1982-05-01,1990-10-31,1982-01-01,1990-12-01
5771,BERRY MOUNTAIN,QUE,48.6666666666667,-66.15,152.4,null,null,1963-01-01,1972-03-31,1963-01-01,1972-12-01
27602,BERRYS BAY,NS,43.6586283333333,-65.25584,7,null,null,1998-06-01,2001-03-31,1998-06-01,2001-03-01
6118,BERRYTON,NB,45.9166666666667,-64.8833333333333,106.7,null,null,1964-07-01,1965-12-31,1964-01-01,1965-12-01
5665,BERSIMIS,QUE,48.9666666666667,-68.6166666666667,45.7,null,null,1923-07-01,1961-09-30,1923-01-01,1960-12-01
5666,BERSIMIS S,QUE,48.95,-68.65,18.3,null,null,1973-06-01,1973-08-31,1973-01-01,1973-12-01
5208,BERTHIERVILLE,QUE,46.05,-73.1833333333333,12.2,null,null,1919-08-01,1995-05-31,1919-01-01,1995-10-01
6119,BERTRAND,NB,47.75,-65.0666666666667,22.9,null,null,1964-02-01,2011-12-30,1964-01-01,2006-02-01
3435,BERTWELL,SASK,52.6,-102.566666666667,518.2,null,null,1958-06-01,1958-10-31,1958-01-01,1958-12-01
7105,BERWICK,NS,45.0833333333333,-64.7333333333333,39.6,null,null,1994-06-01,2012-09-30,1994-01-01,2006-02-01
2660,BERWYN,ALTA,56.15,-117.75,654.7,null,null,1921-01-01,1958-11-30,1921-01-01,1958-12-01
2661,BERWYN CDA,ALTA,56.15,-117.683333333333,626.4,null,null,1975-10-01,1993-03-31,1975-01-01,1993-12-01
5317,BETHANIE,QUE,45.5,-72.4333333333333,198.1,null,null,1968-06-01,1985-01-31,1968-01-01,1985-12-01
5948,BGE C LAC CHATEAUVERT,QUE,47.7666666666667,-73.9,382.5,null,null,1942-11-01,1982-11-30,1942-01-01,1981-12-01
5772,BIC,QUE,48.3666666666667,-68.7,18.3,null,null,1882-06-01,1968-07-31,1882-01-01,1968-12-01
5773,BIC,QUE,48.4,-68.6666666666667,23,null,null,1966-10-01,1985-01-31,1966-01-01,1985-12-01
3210,BICKLEIGH,SASK,51.2944444444444,-108.406686111111,676.4,null,null,1988-12-01,2013-12-22,1988-01-01,2007-11-01
6120,BIG BALD MOUNTAIN,NB,47.2,-66.4333333333333,0,null,null,1935-06-01,1946-07-31,1935-01-01,1946-12-01
6120,BIG BALD MOUNTAIN,NB,47.2,-66.4333333333333,0,null,null,1935-06-01,1946-07-31,1935-01-01,1946-12-01
10842,BIG BAY,NFLD,55.7388888888889,-60.4297222222222,279.8,1992-12-31,1993-04-27,null,null,null,null
3164,BIG BEAVER,SASK,49.0166666666667,-105.016666666667,742.9,null,null,1985-05-01,1989-08-31,1985-01-01,1989-12-01
4191,BIG CHAUDIERE FALLS,ONT,46.15,-80.0166666666667,0,null,null,1918-05-01,1933-04-30,1918-01-01,1933-12-01
4416,BIG CHUTE,ONT,44.8833333333333,-79.6666666666667,190.5,null,null,1913-05-01,1972-01-31,1913-01-01,1972-12-01
2188,BIG COULEE,ALTA,49.75,-113.8,1325,null,null,1980-10-01,1985-05-31,1980-01-01,1985-12-01
507,BIG CREEK,BC,51.6672236111111,-123.073056944444,1175,null,null,1893-01-01,1998-11-30,1893-01-01,1998-11-01
10811,BIG CREEK (AUT),BC,51.2602777777778,-123.0925,1670,1994-10-03,2003-03-25,1995-05-24,2011-09-28,null,null
6303,BIG INTERVALE,NS,46.8333333333333,-60.6166666666667,39.6,null,null,1984-09-01,1992-12-31,1984-01-01,1992-12-01
457,BIG OLIVER CREEK,BC,54.8333333333333,-128.3,121.9,null,null,1973-06-01,1975-05-31,1973-01-01,1975-12-01
3351,BIG RIVER,SASK,53.8333333333333,-107.033333333333,502.9,null,null,1957-01-01,1998-11-30,1962-01-01,1998-11-01
3352,BIG RIVER EXP ST,SASK,53.85,-107,485.2,null,null,1951-06-01,1956-11-30,1951-01-01,1955-12-01
2046,BIG STONE,ALTA,51.1666666666667,-111.2,773.9,null,null,1982-05-01,2000-01-31,1982-01-01,2000-01-01
31327,BIG STONE LOCKHART,ALTA,51.2,-111.116666666667,789,null,null,2002-01-01,2004-11-30,2002-01-01,2004-11-01
26860,BIG THUNDER,ONT,48.2833333333333,-89.3833333333333,298.8,1995-01-20,1995-03-20,null,null,null,null
50857,BIG TROUT LAKE,ONT,53.8161111111111,-89.8916666666667,222.5,2012-09-28,2013-12-30,2012-10-02,2013-12-30,null,null
3914,BIG TROUT LAKE,ONT,53.8333333333333,-89.8666666666667,224.1,1953-01-01,1992-10-12,1939-02-01,1992-10-31,1939-01-01,1992-12-01
49488,BIG TROUT LAKE A,ONT,53.8177777777778,-89.8969444444444,222.5,2011-10-17,2013-12-30,2011-10-20,2013-12-30,null,null
10804,BIG TROUT LAKE READAC,ONT,53.8155555555556,-89.8955555555556,222.2,1994-02-01,2013-12-12,1992-12-01,2013-12-12,null,null
2047,BIG VALLEY,ALTA,52.0333333333333,-112.75,829.1,null,null,1970-05-01,1986-11-30,1970-01-01,1986-12-01
3776,BIG VALLEY,MAN,50.4666666666667,-99.45,381,null,null,1977-08-01,1978-06-30,1977-01-01,1978-12-01
46469,BIG VALLEY AGCM,ALTA,51.9977794444444,-112.802501666667,870,2007-09-11,2013-12-30,2007-09-11,2013-12-30,null,null
2048,BIG VALLEY WEST,ALTA,52.0333333333333,-112.966666666667,792.5,null,null,1980-11-01,1983-03-31,1980-01-01,1983-12-01
1079,BIG WHITE,BC,49.7333333333333,-118.933333333333,1841,null,null,1981-02-01,1999-04-30,1981-01-01,1999-04-01
1080,BIG WHITE MTN LODGE,BC,49.7333333333333,-118.933333333333,1844,null,null,1965-03-01,1968-06-30,1965-01-01,1968-12-01
3211,BIGGAR,SASK,52.0666666666667,-107.983333333333,670.6,null,null,1917-04-01,2005-03-31,1917-01-01,2005-03-01
2365,BIGHORN DAM,ALTA,52.3166666666667,-116.333333333333,1341,null,null,1969-10-01,2010-09-26,1969-01-01,2007-11-01
1100,BILLINGS,BC,49.0168333333333,-118.228333333333,510,null,null,1984-11-01,2013-12-21,1984-01-01,2007-02-01
4611,BINBROOK,ONT,43.1166666666667,-79.8333333333333,205.7,null,null,1967-02-01,1970-03-31,1967-01-01,1970-12-01
2049,BINDLOSS,ALTA,50.6833333333333,-110.166666666667,640.1,null,null,1948-05-01,1959-09-30,1948-01-01,1959-12-01
2050,BINDLOSS EAST,ALTA,50.8908361111111,-110.198625,636,null,null,1980-08-01,2008-02-29,1980-01-01,2007-11-01
2051,BINDLOSS EXP ST,ALTA,50.8666666666667,-110.183333333333,641.6,null,null,1954-05-01,1955-12-31,1954-01-01,1955-12-01
4417,BINGHAM CHUTE,ONT,46.0833333333333,-79.4,242.3,null,null,1933-02-01,1970-05-31,1933-01-01,1970-12-01
3467,BINSCARTH,MAN,50.5833333333333,-101.266666666667,525.8,null,null,1973-05-01,2005-10-31,1973-01-01,2005-10-01
3276,BIRCH HILLS,SASK,53,-105.483333333333,459.9,null,null,1983-12-01,1984-06-30,1983-01-01,1984-12-01
1820,BIRCH LAKE,ALTA,53.3833333333333,-111.766666666667,689,null,null,1987-07-01,1988-11-30,1987-01-01,1988-12-01
2481,BIRCH MOUNTAIN LO,ALTA,57.7166666666667,-111.85,853.4,null,null,1960-06-01,2011-08-23,1960-01-01,2007-09-01
2662,BIRCH MOUNTAIN TOWER,ALTA,58.1,-112.15,731,null,null,1976-06-01,1990-08-31,1976-01-01,1990-12-01
3777,BIRCH RIVER,MAN,52.5166666666667,-100.916666666667,267.9,null,null,1970-06-01,2000-10-31,1970-01-01,2000-10-01
1101,BIRCHBANK,BC,49.1666666666667,-117.716666666667,469.4,null,null,1924-01-01,1945-05-31,1924-01-01,1945-12-01
5318,BIRCHTON,QUE,45.3666666666667,-71.6666666666667,0,null,null,1973-01-01,1981-12-31,1973-01-01,1981-12-01
6304,BIRCHTOWN,NS,45.45,-61.4833333333333,68.6,null,null,1958-06-01,1977-12-31,1958-01-01,1977-12-01
3869,BIRD,MAN,56.5,-94.2,86.9,1957-10-01,1963-12-31,1957-10-01,1963-12-31,1957-01-01,1963-12-01
5774,BIRD ROCKS,QUE,47.85,-61.1333333333333,32.3,null,null,1881-01-01,1934-09-30,1881-01-01,1934-12-01
3576,BIRDS HILL NURSERY,MAN,49.9833333333333,-96.8333333333333,256,null,null,1969-08-01,1969-10-31,1969-01-01,1969-12-01
3577,BIRDS HILL PINE RIDGE,MAN,49.9833333333333,-96.9333333333333,238.4,null,null,1988-05-01,1992-11-30,1988-01-01,1992-12-01
3468,BIRDTAIL,MAN,50.8166666666667,-100.916666666667,577.6,null,null,1989-06-01,1995-07-31,1989-01-01,1995-07-01
936,BIRKENHEAD LAKE,BC,50.5666666666667,-122.65,715.1,null,null,1983-07-01,1985-07-31,1983-01-01,1985-12-01
3778,BIRNIE,MAN,50.5,-99.4833333333333,432.8,null,null,1979-04-01,1983-09-30,1979-01-01,1983-12-01
3072,BIRSAY,SASK,51.15,-106.883333333333,589.8,null,null,1970-05-01,1971-09-30,1970-01-01,1971-12-01
3073,BIRSAY,SASK,51.0833333333333,-106.966666666667,594.4,null,null,1972-05-01,1981-02-28,1972-01-01,1981-12-01
3469,BIRTLE,MAN,50.4333333333333,-101.05,522,null,null,1883-02-01,2000-11-30,1883-01-01,2000-11-01
4107,BISCOTASING,ONT,47.3,-82.1,406.9,null,null,1914-01-01,2000-10-31,1914-01-01,2000-10-01
3074,BISHOPRIC,SASK,50,-105.783333333333,679.7,null,null,1947-11-01,1975-07-31,1947-01-01,1975-12-01
6572,BISHOPS FALLS,NFLD,49.0166666666667,-55.4666666666667,9.1,null,null,1955-10-01,1962-03-31,1955-01-01,1961-12-01
6571,BISHOPS FALLS,NFLD,49.0166666666667,-55.5,21.3,null,null,1988-02-01,1993-06-30,1988-01-01,1993-12-01
6573,BISHOPS FALLS PEAT MINE,NFLD,49.05,-55.4166666666667,15.2,null,null,1980-02-01,1984-07-31,1980-01-01,1982-12-01
5319,BISHOPTON,QUE,45.5833333333333,-71.5666666666667,213.4,null,null,1948-05-01,1996-05-31,1948-01-01,1996-05-01
2052,BISMARK,ALTA,52.7333333333333,-113.866666666667,0,null,null,1906-11-01,1916-06-30,1906-01-01,1916-12-01
2663,BISON LO,ALTA,57.1166666666667,-116.5,731.5,null,null,1963-04-01,2011-08-23,1963-01-01,2007-08-01
3722,BISSETT,MAN,50.9666666666667,-95.6333333333333,0,null,null,1933-02-01,1952-01-31,1933-01-01,1952-12-01
3723,BISSETT,MAN,51.0333333333333,-95.7,259,1968-11-01,1985-03-31,1968-11-01,1997-06-30,1968-01-01,1997-06-01
27827,BISTCHO LAKE (F5),ALTA,59.9166666666667,-118.95,576,null,null,1999-04-01,2004-09-30,1999-06-01,2001-09-01
3353,BITTERN CREEK,SASK,53.9833333333333,-105.866666666667,518.2,null,null,1953-06-01,1956-08-31,1953-01-01,1956-12-01
1821,BITTERN LAKE,ALTA,53.0666666666667,-113,745.2,null,null,1907-02-01,1926-10-31,1907-01-01,1926-12-01
2482,BITUMONT LO,ALTA,57.3666666666667,-111.533333333333,348.7,null,null,1962-05-01,2008-08-26,1962-01-01,2007-09-01
139,BLACK CREEK,BC,49.8461111111111,-125.132777777778,46,null,null,1964-04-01,2008-12-31,1964-01-01,2005-04-01
45507,BLACK CREEK SE,BC,49.8033333333333,-125.094744444444,87.8,null,null,2006-08-01,2012-11-29,2006-08-01,2007-02-01
47747,BLACK DIAMOND,ALTA,50.7066688888889,-114.151667222222,1156,2008-12-04,2013-12-30,2008-12-04,2013-12-27,null,null
6574,BLACK DUCK,NFLD,48.5666666666667,-58.3666666666667,35.4,null,null,1981-09-01,2004-08-31,1981-01-01,2004-08-01
5320,BLACK LAKE,QUE,46.05,-71.3666666666667,262.7,null,null,1961-09-01,1962-09-30,1961-01-01,1962-12-01
6305,BLACK RIVER,NS,46.1333333333333,-61.3333333333333,106.7,null,null,1973-06-01,1975-01-31,1973-01-01,1975-12-01
3990,BLACK STURGEON LAKE,ONT,49.3166666666667,-88.85,253,null,null,1951-05-01,1968-08-31,1951-01-01,1968-12-01
3991,BLACK STURGEON LAKE 2,ONT,49.3,-88.8,253,null,null,1968-12-01,1971-08-31,1968-01-01,1971-12-01
3992,BLACK STURGEON RIVER,ONT,49.0666666666667,-88.6166666666667,219.5,null,null,1957-10-01,1959-05-31,1958-01-01,1959-12-01
7351,BLACK TOP RIDGE (AUT),NU,80,-85.4166666666667,619,1983-04-29,1986-11-19,null,null,null,null
45787,BLACKCOMB BASE SLIDING CENTER,BC,50.1024722222222,-122.936361111111,937,2007-04-30,2013-12-30,2007-04-30,2013-12-30,null,null
47807,BLACKCOMB BASE SLIDING CENTRE BOTTOM,BC,50.1058352777778,-122.9422225,816.6,2008-12-16,2010-03-10,2008-12-16,2010-03-10,null,null
700,BLACKCOMB MOUNTAIN 1540,BC,50.1,-122.916666666667,1540.2,null,null,1983-12-01,1994-05-31,1983-01-01,1994-12-01
715,BLACKCOMB MOUNTAIN 1860,BC,50.1,-122.916666666667,1860.9,null,null,1980-11-01,1994-05-31,1981-01-01,1990-12-01
498,BLACKDOME MOUNTAIN,BC,51.3166666666667,-122.5,1898,null,null,1986-08-01,1991-10-31,1986-01-01,1991-11-01
2176,BLACKIE,ALTA,50.7333333333333,-113.6,1066.8,null,null,1970-04-01,1972-07-31,1970-01-01,1972-12-01
2177,BLACKIE 2W,ALTA,50.6,-113.683333333333,1024.1,null,null,1972-07-01,1982-02-28,1972-01-01,1982-12-01
50917,BLACKIE AGCM,ALTA,50.5455788888889,-113.640277777778,1019,2012-11-07,2013-12-30,null,null,null,null
2178,BLACKIE NORTH,ALTA,50.7666666666667,-113.666666666667,1066.8,null,null,1972-06-01,1977-07-31,1972-01-01,1977-12-01
2179,BLACKIE NW,ALTA,50.7666666666667,-113.766666666667,1066.8,null,null,1977-07-01,1977-10-31,1977-01-01,1977-12-01
31048,BLACKSTOCK,ONT,44.1,-78.8333333333333,291,null,null,2001-06-01,2013-12-29,2001-06-01,2006-12-01
1822,BLACKSTONE LO,ALTA,52.7833333333333,-116.35,1569.7,null,null,1965-06-01,2011-09-01,1965-01-01,2007-09-01
3277,BLACKSTRAP,SASK,51.7833333333333,-106.4,536.4,null,null,1974-11-01,1981-02-28,1974-01-01,1980-12-01
1396,BLACKWATER CREEK,BC,55.5333333333333,-123.65,732,null,null,1989-10-01,1997-08-31,1989-01-01,1997-08-01
3278,BLAINE LAKE,SASK,52.7666666666667,-106.9,518.2,null,null,1983-05-01,1983-10-31,1983-01-01,1983-12-01
2367,BLAIRMORE HQTS RS,ALTA,49.6166666666667,-114.433333333333,1310.6,null,null,1971-06-01,1999-10-31,1971-01-01,1999-10-01
988,BLAKEBURN,BC,49.4833333333333,-120.733333333333,1485,null,null,1973-10-01,1973-11-30,1973-01-01,1973-12-01
5668,BLANC SABLON,QUE,51.4166666666667,-57.2166666666667,19.2,1967-08-24,1982-08-31,1967-08-01,1982-07-31,1967-01-01,1982-12-01
5667,BLANC SABLON,QUE,51.4166666666667,-57.2,7.6,null,null,1965-09-01,1975-10-31,1965-01-01,1975-12-01
5669,BLANC-SABLON A,QUE,51.45,-57.1833333333333,37.2,1970-01-01,2013-12-30,1982-08-01,2013-12-30,1982-01-01,2012-12-01
30167,BLANC-SABLON A (AUT),QUE,51.45,-57.1833333333333,36.9,null,null,2008-07-03,2008-07-23,null,null
1519,BLANCHARD RIVER,YT,60,-136.766666666667,836,null,null,1986-11-01,2012-06-30,1986-01-01,2007-02-01
5581,BLANCHE,QUE,45.75,-75.3333333333333,213,null,null,1974-10-01,1994-05-31,1974-01-01,1994-12-01
4544,BLENHEIM,ONT,42.6666666666667,-82.0166666666667,205.1,null,null,1883-04-01,1897-11-30,1883-01-01,1897-12-01
44806,BLENHEIM 1,ONT,42.30751,-82.0316683333333,200,null,null,2006-05-01,2009-12-29,2006-05-01,2006-12-01
44806,BLENHEIM 1,ONT,42.30751,-82.0316683333333,200,null,null,2006-05-01,2009-12-29,2006-05-01,2006-12-01
140,BLIND CHANNEL,BC,50.4166666666667,-125.5,3,null,null,1956-05-01,1993-12-31,1956-01-01,1993-12-01
4064,BLIND RIVER,ONT,46.2,-83,183.2,null,null,1926-04-01,1959-10-31,1926-01-01,1959-12-01
4065,BLIND RIVER HYDRO CENTRE,ONT,46.2,-83.0166666666667,189,null,null,1982-06-01,1989-11-30,1982-01-01,1989-12-01
2053,BLINDMAN,ALTA,52.7666666666667,-114.483333333333,960.1,null,null,1963-06-01,1992-08-31,1963-01-01,1992-12-01
6121,BLISSVILLE,NB,45.6166666666667,-66.55,22.3,null,null,1940-01-01,1951-04-30,1940-01-01,1951-12-01
2054,BLOOD INDIAN CREEK,ALTA,50.9166666666667,-111.066666666667,640.1,null,null,1982-05-01,1993-05-31,1982-01-01,1993-12-01
42703,BLOOD TRIBE AGDM,ALTA,49.5666666666667,-113.05,980,2004-06-16,2013-12-30,2004-06-01,2013-12-30,2004-06-01,2007-11-01
4862,BLOOMFIELD,ONT,43.9833333333333,-77.2166666666667,91.4,null,null,1896-04-01,2013-02-28,1896-01-01,2006-12-01
4863,BLOOMFIELD WEST,ONT,43.9833333333333,-77.25,90,null,null,1966-07-01,1997-04-30,1966-01-01,1997-04-01
5670,BLOUGH LAKE,QUE,51.75,-68.3333333333333,0,null,null,1956-07-01,1956-09-30,1956-01-01,1956-12-01
4848,BLUE ACTON,ONT,43.6,-80.05,365.8,null,null,1974-05-01,1976-03-31,1974-01-01,1976-12-01
4727,BLUE CORWHIN,ONT,43.5333333333333,-80.1166666666667,350.5,null,null,1974-05-01,1976-03-31,1974-01-01,1976-12-01
6306,BLUE MOUNTAIN,NS,45.4833333333333,-62.4166666666667,213.4,null,null,1956-07-01,1957-01-31,1956-01-01,1957-12-01
6122,BLUE MOUNTAIN TOWER,NB,47.8,-66.3,160,null,null,1935-06-01,1951-06-30,1935-01-01,1950-12-01
1237,BLUE RIVER A,BC,52.1290277777778,-119.289527777778,682.8,1969-12-01,2013-12-30,1969-12-01,2013-12-28,1969-01-01,2007-02-01
8214,BLUE RIVER CS,BC,52.1290277777778,-119.289527777778,682.8,1993-10-31,2013-12-30,1992-12-02,2013-12-30,1997-05-01,2006-10-01
1238,BLUE RIVER NORTH,BC,52.15,-119.283333333333,688.8,null,null,1929-01-01,1985-09-30,1929-01-01,1985-12-01
4725,BLUE ROCKWOOD,ONT,43.5833333333333,-80.1166666666667,350.5,null,null,1974-06-01,1976-03-31,1974-01-01,1976-12-01
4726,BLUE SCOUT,ONT,43.6166666666667,-80.0833333333333,342.9,null,null,1974-05-01,1976-03-31,1974-01-01,1976-12-01
4733,BLUE SPRINGS CREEK,ONT,43.6333333333333,-80.1166666666667,373.4,null,null,1966-07-01,1980-07-31,1966-01-01,1980-12-01
6861,BLUEBERRY CREEK,ALTA,55.9166666666667,-119.000555555556,621.8,null,null,1993-05-01,1996-05-31,1993-01-01,1996-05-01
2664,BLUEBERRY MTN CDA EPF,ALTA,55.9333333333333,-119.133333333333,731.5,null,null,1955-03-01,1972-12-31,1955-01-01,1972-12-01
2368,BLUEHILL LO,ALTA,51.7,-115.216666666667,1950.7,null,null,1962-05-01,2011-09-01,1962-01-01,2007-09-01
2055,BLUFFTON,ALTA,52.75,-114.283333333333,908.3,null,null,1963-06-01,1984-05-31,1964-01-01,1984-12-01
3075,BLUMENHOF,SASK,50.0333333333333,-107.766666666667,899.2,null,null,1986-05-01,1991-04-30,1986-01-01,1991-11-01
4545,BLYTH,ONT,43.71834,-81.3836333333333,350.5,null,null,1959-02-01,2006-12-31,1959-01-01,2006-12-01
383,BOAT BLUFF,BC,52.6430694444444,-128.523908333333,10.7,1994-02-01,2001-12-13,1974-06-01,2013-12-26,1974-01-01,2007-02-01
6575,BOAT HARBOUR,NFLD,47.4305555555556,-54.8427777777778,15.2,null,null,1982-12-01,2009-12-31,1982-01-01,2006-02-01
2369,BOB CREEK,ALTA,49.8833333333333,-114.25,1371.6,null,null,1971-10-01,1983-03-31,1971-01-01,1983-12-01
1483,BOB QUINN,BC,56.9833333333333,-130.25,579.1,null,null,1974-09-01,1974-10-31,1974-01-01,1974-12-01
1484,BOB QUINN AGS,BC,56.9667777777778,-130.25,610,null,null,1977-12-01,1994-04-30,1977-01-01,1994-12-01
6947,BOB QUINN LAKE 2,BC,56.9666666666667,-130.25,609.6,null,null,1991-09-01,1991-09-30,1991-01-01,1991-12-01
1350,BOBBIE BURNS,BC,50.9494444444444,-116.929444444444,1370,null,null,1981-02-01,2001-12-31,1981-01-01,2000-12-01
5156,BOBCAYGEON,ONT,44.5166666666667,-78.6166666666667,260,null,null,1986-04-01,1993-01-31,1986-01-01,1993-12-01
5157,BOBCAYGEON,ONT,44.5833333333333,-78.5166666666667,248.1,null,null,1981-06-01,1985-08-31,1981-01-01,1985-12-01
32149,BODO AGDM,ALTA,52.1241680555556,-110.101391388889,687,1995-02-21,2013-12-30,2002-11-01,2013-12-30,2002-12-01,2007-11-01
3470,BOGGY CREEK,MAN,51.5386111111111,-101.391111111111,609,null,null,1977-07-01,2012-09-30,1977-01-01,2007-11-01
4418,BOGNOR,ONT,44.6666666666667,-80.8333333333333,249.9,null,null,1883-04-01,1900-09-30,1883-01-01,1900-12-01
3578,BOISSEVAIN,MAN,49.2333333333333,-100.05,510.5,null,null,1912-04-01,1981-03-31,1912-01-01,1981-12-01
3579,BOISSEVAIN 2,MAN,49.2166666666667,-100.083333333333,525.8,null,null,1948-11-01,1970-03-31,1948-01-01,1970-12-01
27083,BOLTON NORTH,ONT,43.9166666666667,-79.75,261,null,null,1995-10-01,2001-09-30,1995-10-01,2001-09-01
4864,BOLTON SPS,ONT,43.8833333333333,-79.7333333333333,213.1,null,null,1978-06-01,1992-02-29,1978-01-01,1992-12-01
6123,BON ACCORD,NB,46.6508472222222,-67.5844527777778,450.3,null,null,1966-07-01,2011-08-11,1966-01-01,2005-05-01
5321,BON CONSEIL EXP ST,QUE,46,-72.4,76.2,null,null,1960-04-01,1960-11-30,1960-01-01,1960-12-01
1520,BONANZA CREEK,YT,63.9666666666667,-139.35,396.2,null,null,1975-05-01,1976-06-30,1975-01-01,1976-12-01
5775,BONAVENTURE,QUE,48.05,-65.4833333333333,19.5,null,null,1917-11-01,1948-06-30,1917-01-01,1948-12-01
45047,BONAVISTA,NFLD,48.6672222222222,-53.1141666666667,25.6,2006-01-23,2013-12-30,2006-07-09,2013-12-30,2006-08-01,2007-07-01
6576,BONAVISTA,NFLD,48.6672222222222,-53.1141666666667,25.6,1959-11-17,2006-06-26,1956-12-01,2006-06-30,1956-01-01,2006-06-01
4186,BONFIELD,ONT,46.2166666666667,-79.1333333333333,265,null,null,1983-09-01,1992-02-29,1983-01-01,1992-12-01
384,BONILLA ISLAND,BC,53.49275,-130.637694444444,16.2,1994-02-01,2001-12-13,1960-04-01,2013-12-29,1960-01-01,2007-02-01
8265,BONILLA ISLAND (AUT),BC,53.4928497222222,-130.639,12.5,1994-02-01,2013-12-30,1994-12-30,2013-12-30,2002-10-01,2007-02-01
5893,BONNARD,QUE,50.7333333333333,-71.05,506,null,null,1961-09-01,2000-05-31,1961-01-01,2000-05-01
10874,BONNARD 1,QUE,50.7288888888889,-71.0130555555556,498,1994-02-01,2013-12-30,1994-12-30,2013-12-30,null,null
4140,BONNER LAKE,ONT,49.3833333333333,-82.1236111111111,245,null,null,1990-12-01,2013-12-29,1990-01-01,2006-12-01
2333,BONNIE VIEW,ALTA,49.3166666666667,-112.633333333333,1250,null,null,1977-03-01,1981-07-31,1977-01-01,1981-12-01
1102,BONNINGTON FALLS,BC,49.45,-117.483333333333,457.2,null,null,1924-01-01,1939-11-30,1924-01-01,1939-12-01
2831,BONNYVILLE EXP ST,ALTA,54.2833333333333,-110.633333333333,548.6,null,null,1952-01-01,1954-04-30,1952-01-01,1954-12-01
5322,BONSECOURS,QUE,45.4,-72.2666666666667,297.2,null,null,1967-01-01,2013-10-31,1967-01-01,2013-10-01
6523,BORDEN,PEI,46.25,-63.7,7.6,null,null,1958-09-01,1967-12-31,1958-01-01,1967-12-01
27197,BORDEN,ONT,44.2655555555556,-79.9194444444445,222.5,1996-10-02,2013-07-03,null,null,null,null
29412,BORDEN 18N,SASK,52.55,-107.233333333333,541,null,null,1999-11-01,2007-03-31,1999-11-01,2007-03-01
4419,BORDEN A,ONT,44.2666666666667,-79.9333333333333,227.4,null,null,1966-09-01,1970-03-31,1966-01-01,1970-12-01
29516,BORDEN AWOS,ONT,44.2722222222222,-79.9116666666667,222.5,2005-05-12,2013-12-30,2000-02-09,2013-12-30,null,null
4399,BORDEN STP,ONT,44.3,-79.9,201.2,null,null,1985-12-01,1992-09-30,1985-01-01,1992-12-01
8668,BORDER (AUT),QUE,55.3333333333333,-63.2166666666667,479,1994-02-01,1998-09-15,1993-01-27,1998-09-15,null,null
6088,BORDER A,QUE,55.3333333333333,-63.2166666666667,464.8,1965-01-12,1979-07-31,1965-01-01,1979-07-31,1965-01-01,1979-12-01
569,BOSS MOUNTAIN,BC,52.1,-120.883333333333,1531.6,null,null,1967-01-01,1984-01-31,1967-01-01,1984-12-01
941,BOSTON BAR,BC,49.8666666666667,-121.433333333333,199.9,null,null,1974-10-01,1989-05-31,1974-01-01,1989-12-01
937,BOSTON BAR,BC,49.8666666666667,-121.45,163.1,null,null,1968-04-01,1968-08-31,1968-01-01,1968-12-01
940,BOSTON BAR ALPINE,BC,49.9166666666667,-121.45,213,null,null,1985-06-01,1985-08-31,1985-01-01,1985-12-01
1103,BOSWELL,BC,49.4833333333333,-116.75,573,null,null,1911-03-01,1940-05-31,1911-01-01,1940-12-01
6577,BOTWOOD,NFLD,49.15,-55.35,15.2,null,null,1937-08-01,1995-06-30,1937-01-01,1995-06-01
1521,BOUNDARY,YT,64.2333333333333,-140.35,1036.3,null,null,1967-01-01,1978-05-31,1967-01-01,1978-12-01
1390,BOUNDARY LAKE,BC,56.3333333333333,-120.1,711.1,null,null,1982-10-01,1987-05-31,1982-01-01,1987-12-01
4234,BOURGET,ONT,45.4666666666667,-75.1666666666667,65.5,null,null,1950-11-01,1951-05-31,1950-01-01,1951-12-01
27037,BOVINE CREEK AFS,ALTA,56.1077777777778,-112.549444444444,518,null,null,1995-06-01,2011-09-01,1995-06-01,2007-09-01
10915,BOW ISLAND,ALTA,49.7341861111111,-111.450277777778,816.6,1994-02-01,2013-12-30,1993-06-04,2013-12-30,1996-06-01,2007-11-01
8755,BOW ISLAND,ALTA,49.8666666666667,-111.383333333333,798.9,null,null,2003-05-01,2004-07-31,2003-05-01,2004-07-01
2189,BOW ISLAND EXP ST,ALTA,49.8666666666667,-111.366666666667,798.6,null,null,1955-01-01,1959-12-31,1955-01-01,1959-12-01
42723,BOW ISLAND IRRIGATION AGDM,ALTA,49.8666666666667,-111.383333333333,799,2004-06-18,2013-12-30,2004-06-18,2013-12-30,2005-05-01,2006-12-01
2190,BOW ISLAND RIVERS DEV,ALTA,49.8666666666667,-111.366666666667,798.9,null,null,1958-09-01,1976-04-30,1958-01-01,1976-12-01
27653,BOW SUMMIT (PC),ALTA,51.7166666666667,-116.483333333333,2011.7,null,null,1999-03-01,2007-11-30,1999-03-01,2007-08-01
10222,BOW VALLEY,ALTA,51.0833333333333,-115.066666666667,1297.5,1994-02-01,2013-12-30,1993-06-04,2013-12-30,1996-01-01,2007-11-01
2370,BOW VALLEY PROV PARK,ALTA,51.0833333333333,-115.066666666667,1318,null,null,1967-05-01,1990-05-31,1967-01-01,1990-12-01
2056,BOWDEN,ALTA,51.9833333333333,-114.016666666667,914.7,null,null,1957-01-01,1985-05-31,1957-01-01,1985-12-01
297,BOWEN ISL ARBUTUS BAY,BC,49.3333333333333,-123.383333333333,21,null,null,1961-01-01,1998-09-30,1961-01-01,1998-09-01
296,BOWEN ISLAND,BC,49.35,-123.416666666667,22.9,null,null,1959-07-01,1965-12-31,1959-01-01,1965-12-01
295,BOWEN ISLAND BOWEN BAY,BC,49.3648444444444,-123.420287777778,36.6,null,null,1966-03-01,2013-11-30,1966-01-01,2007-02-01
298,BOWEN ISLAND CATES BAY,BC,49.4119444444444,-123.315,27,null,null,1987-04-01,2000-05-31,1987-01-01,2000-05-01
6815,BOWEN ISLAND JOSEPHINE RIDGE,BC,49.3666666666667,-123.383333333333,160,null,null,1992-05-01,1996-02-29,1992-01-01,1996-02-01
6814,BOWEN ISLAND KILLARNEY LAKE,BC,49.4,-123.366666666667,50,null,null,1992-05-01,1996-06-30,1992-01-01,1996-06-01
290,BOWEN ISLAND MILLERS LDG,BC,49.3919444444444,-123.328055555556,91.1,null,null,1972-04-01,2001-12-31,1972-01-01,2001-12-01
6816,BOWEN ISLAND SUNSET PARK,BC,49.3599077777778,-123.401969444444,165.3,null,null,1992-05-01,2012-04-30,1992-01-01,2007-02-01
4865,BOWMANVILLE,ONT,43.9166666666667,-78.65,121.9,null,null,1947-08-01,1957-12-31,1947-01-01,1957-12-01
4866,BOWMANVILLE MOSTERT,ONT,43.9166666666667,-78.6666666666667,99.1,null,null,1966-06-01,2002-03-31,1966-01-01,2002-03-01
2191,BOWNESS,ALTA,51.1166666666667,-114.216666666667,1036.3,null,null,1959-01-01,1959-08-31,1959-01-01,1959-12-01
564,BOWRON LAKE,BC,53.2833333333333,-121.45,944.9,null,null,1974-04-01,1990-08-31,1974-01-01,1990-12-01
141,BOWSER,BC,49.45,-124.666666666667,3,null,null,1957-03-01,1958-08-31,1957-01-01,1958-12-01
2483,BOYLE,ALTA,54.5666666666667,-112.866666666667,670.6,null,null,1956-03-01,1958-03-31,1956-01-01,1958-12-01
3354,BRABANT LAKE,SASK,56.1166666666667,-103.75,381,null,null,1966-11-01,1973-03-31,1966-01-01,1973-12-01
3354,BRABANT LAKE,SASK,56.1166666666667,-103.75,381,null,null,1966-11-01,1973-03-31,1966-01-01,1973-12-01
4420,BRACEBRIDGE,ONT,45.05,-79.3166666666667,250,null,null,1984-07-01,1989-02-28,1984-01-01,1989-12-01
4421,BRACEBRIDGE ONT HYDRO,ONT,45.0333333333333,-79.3,266.7,null,null,1983-07-01,1987-01-31,1983-01-01,1987-12-01
3165,BRACKEN CDA EPF,SASK,49.2,-108.1,888.2,null,null,1951-01-01,1972-11-30,1951-01-01,1972-12-01
3166,BRACKEN NORTH,SASK,49.3833333333333,-108.116666666667,914.4,null,null,1973-05-01,1977-08-31,1973-01-01,1977-12-01
6524,BRACKLEY BEACH,PEI,46.4166666666667,-63.3333333333333,48.5,null,null,1952-05-01,1956-11-30,1952-01-01,1956-12-01
4867,BRADFORD,ONT,44.1,-79.5,220.7,null,null,1951-09-01,1957-06-30,1951-01-01,1957-12-01
4868,BRADFORD 2,ONT,44.1166666666667,-79.5333333333333,221,null,null,1954-08-01,1958-02-28,1954-01-01,1958-12-01
4422,BRADFORD BROWN,ONT,44.15,-79.5666666666667,292.6,null,null,1972-05-01,1976-04-30,1972-01-01,1976-12-01
4869,BRADFORD HIGH SCHOOL,ONT,44.1166666666667,-79.5,251.5,null,null,1960-09-01,1962-04-30,1960-01-01,1962-12-01
4870,BRADFORD MUCK RESEARCH,ONT,44.0333333333333,-79.6,221,null,null,1974-01-01,1998-11-30,1974-01-01,1998-11-01
4871,BRADFORD OAC,ONT,44.1,-79.6,243.8,null,null,1960-05-01,1966-09-30,1960-01-01,1966-12-01
4872,BRADFORD ODA,ONT,44.1166666666667,-79.55,221,null,null,1966-08-01,1968-01-31,1966-01-01,1967-12-01
4873,BRADFORD SPRINGDALE,ONT,44.0333333333333,-79.6166666666667,221,null,null,1966-07-01,1982-05-31,1966-01-01,1981-12-01
1522,BRAEBURN,YT,61.4666666666667,-135.783333333333,716.3,null,null,1974-05-01,1995-07-31,1974-01-01,1995-07-01
6307,BRAESHORE,NS,45.7,-62.65,7.6,null,null,1975-09-01,1984-01-31,1975-01-01,1984-12-01
2192,BRAGG CREEK WEST,ALTA,50.9666666666667,-114.616666666667,1371.9,null,null,1975-05-01,1985-05-31,1975-01-01,1985-12-01
3724,BRAINTREE 1,MAN,49.6333333333333,-95.5666666666667,315.5,null,null,1983-11-01,1984-11-30,1983-01-01,1984-12-01
3725,BRAINTREE 2,MAN,49.6,-95.6166666666667,315.5,null,null,1983-11-01,1995-02-28,1983-01-01,1995-02-01
508,BRALORNE,BC,50.7833333333333,-122.816666666667,1015,null,null,1924-08-01,1963-06-30,1924-01-01,1963-12-01
4874,BRAMALEA,ONT,43.6833333333333,-79.7166666666667,205.7,null,null,1967-09-01,1971-02-28,1967-01-01,1971-12-01
4875,BRAMPTON,ONT,43.7,-79.7666666666667,221,null,null,1870-12-01,1964-12-31,1871-01-01,1964-12-01
6953,BRAMPTON AIRPORT,ONT,43.7666666666667,-79.8833333333333,274.3,null,null,1991-08-01,1992-08-31,1991-01-01,1992-12-01
4876,BRAMPTON MOE,ONT,43.6666666666667,-79.7,182.9,null,null,1962-07-01,1993-12-31,1963-01-01,1993-12-01
6578,BRANCH,NFLD,46.8830555555556,-53.9680555555556,11.8,null,null,1983-12-01,2013-12-28,1983-01-01,2005-07-01
3474,BRANDON #1 WINTER BAY,MAN,49.8333333333333,-99.9833333333333,396,null,null,1987-07-01,2002-04-30,1987-01-01,2002-04-01
3471,BRANDON A,MAN,49.91,-99.9519444444445,409.4,1958-01-01,2012-12-06,1941-07-01,2012-12-05,1941-01-01,2012-12-01
50821,BRANDON A,MAN,49.91,-99.9522222222222,409.3,2012-12-03,2013-12-30,2012-12-06,2013-12-30,null,null
3472,BRANDON CDA,MAN,49.8666666666667,-99.9833333333333,362.7,null,null,1890-01-01,2010-03-10,1890-01-01,2007-11-01
49909,BRANDON RCS,MAN,49.9,-99.95,409.4,2012-01-09,2013-12-30,2012-01-09,2013-12-30,null,null
3473,BRANDON SOUTH,MAN,49.8166666666667,-99.95,396.2,null,null,1972-05-01,1975-09-30,1972-01-01,1975-12-01
1523,BRANDT PEAK,YT,63.05,-140.933333333333,1127.8,null,null,1976-05-01,1978-09-30,1976-01-01,1978-12-01
2193,BRANT,ALTA,50.45,-113.5,990.6,null,null,1983-04-01,1989-11-30,1983-01-01,1989-12-01
4734,BRANTFORD,ONT,43.1333333333333,-80.2666666666667,205.7,null,null,1876-01-01,1963-06-30,1876-01-01,1963-12-01
4735,BRANTFORD BRANT PARK,ONT,43.15,-80.3,213.4,null,null,1972-11-01,1973-11-30,1972-01-01,1973-12-01
4737,BRANTFORD MOE,ONT,43.1333333333333,-80.2333333333333,196,null,null,1960-06-01,2013-01-19,1960-01-01,2006-12-01
4736,BRANTFORD MORELL,ONT,43.15,-80.2833333333333,198.1,null,null,1959-05-01,1964-10-31,1959-01-01,1964-12-01
7568,BRANTRIDGE DOMINICA,OTHR,15.3833333333333,-61.35,442,1971-07-01,1973-06-30,1971-07-01,1973-06-30,null,null
44543,BRATT'S LAKE CLIMATE,SASK,50.2005558333333,-104.71,580,2006-01-01,2013-12-30,2005-11-30,2013-12-27,2006-02-01,2007-11-01
1734,BRAY ISLAND,NU,69.2238888888889,-77.2469444444444,17.7,1995-03-03,1995-03-03,1959-01-01,1993-03-19,1959-01-01,1963-12-01
1823,BRAZEAU LO,ALTA,53.0166666666667,-115.416666666667,1088.4,null,null,1940-05-01,2011-09-29,1940-01-01,2007-09-01
5892,BRE #3 RIV-AUX-RATS,QUE,49.2166666666667,-72.25,335.3,null,null,1963-02-01,1969-06-30,1963-01-01,1969-12-01
4423,BRECHIN BEACH,ONT,44.5333333333333,-79.2,219.5,null,null,1985-12-01,1994-11-30,1986-01-01,1994-12-01
1824,BREMNER,ALTA,53.5833333333333,-113.283333333333,678.2,null,null,1962-03-01,1972-05-31,1962-01-01,1972-12-01
20,BRENTWOOD BAY 2,BC,48.6,-123.466666666667,38,null,null,1987-11-01,1997-05-31,1987-01-01,1997-05-01
21,BRENTWOOD CLARKE ROAD,BC,48.5666666666667,-123.45,30.5,null,null,1972-05-01,1980-03-31,1972-01-01,1980-12-01
22,BRENTWOOD W SAANICH RD,BC,48.5666666666667,-123.433333333333,91.4,null,null,1960-08-01,1970-06-30,1960-01-01,1970-12-01
1825,BRETON,ALTA,53.1666666666667,-114.483333333333,843,null,null,1961-08-01,2013-12-29,1961-01-01,2007-11-01
10928,BRETON PLOTS,ALTA,53.0894444444444,-114.440833333333,851.5,1995-05-04,2013-12-29,2001-12-01,2013-12-27,2001-12-01,2007-11-01
1826,BRETON TOWN,ALTA,53.1166666666667,-114.466666666667,837.3,null,null,1977-08-01,1989-08-31,1977-01-01,1989-12-01
1735,BREVOORT ISLAND,NU,63.3397222222222,-64.1458333333333,376,1960-04-27,2013-12-30,1959-11-01,2013-12-30,1959-01-01,2007-09-01
1827,BRIARFIELD,ALTA,53.7333333333333,-111.05,633,null,null,1987-05-01,1995-02-28,1987-01-01,1995-02-01
1081,BRIDESVILLE,BC,49.05,-119.166666666667,1187,null,null,1957-07-01,1994-10-31,1957-01-01,1994-12-01
1239,BRIDGE LAKE,BC,51.4666666666667,-120.733333333333,1157,null,null,1975-09-01,1995-06-30,1975-01-01,1995-06-01
1240,BRIDGE LAKE 2,BC,51.5038333333333,-120.7935,1155.2,null,null,1980-08-01,2010-10-13,1980-01-01,2007-02-01
571,BRIDGE RIVER,BC,50.7333333333333,-122.216666666667,253,null,null,1935-07-01,1953-02-28,1935-01-01,1953-12-01
570,BRIDGE RIVER,BC,50.85,-122.433333333333,609.6,null,null,1924-01-01,1929-07-31,1924-01-01,1929-12-01
27930,BRIDGETOWN,NS,44.8333333333333,-65.3,8,null,null,1998-01-01,2012-09-30,1998-01-01,2006-02-01
6308,BRIDGEWATER,NS,44.4,-64.55,27.4,null,null,1961-09-01,2011-06-30,1961-01-01,2006-02-01
10859,BRIER ISLAND,NS,44.2858333333333,-66.3466666666667,15.8,1969-12-31,2013-12-30,2005-10-27,2013-12-30,2005-11-01,2007-07-01
2852,BRIERCREST,SASK,50.15,-105.266666666667,594.1,null,null,1952-11-01,1992-08-31,1952-01-01,1992-12-01
2853,BRIERCREST 2,SASK,50.0833333333333,-105.35,629.1,null,null,1983-08-01,1993-01-31,1983-01-01,1993-12-01
5323,BRIGHAM,QUE,45.25,-72.85,91.4,null,null,1968-07-01,1972-05-31,1968-01-01,1972-12-01
4878,BRIGHTON,ONT,44.0666666666667,-77.7333333333333,92.7,null,null,1948-05-01,1950-08-31,1948-01-01,1950-12-01
1828,BRIGHTVIEW,ALTA,52.9833333333333,-113.716666666667,815.3,null,null,1961-06-01,2012-04-01,1961-01-01,2007-11-01
2484,BRIGHTWOOD,ALTA,53.5,-114.933333333333,792.5,null,null,1965-02-01,1973-02-28,1965-01-01,1973-12-01
1352,BRISCO,BC,50.8205555555556,-116.258055555556,823,null,null,1924-01-01,2004-03-31,1924-01-01,2004-03-01
299,BRITANNIA BEACH FURRY CR,BC,49.5838888888889,-123.223611111111,9,null,null,1913-12-01,2000-04-30,1913-01-01,2000-04-01
5324,BRITANNIA MILLS,QUE,45.6333333333333,-72.8166666666667,68.6,null,null,1968-06-01,1975-11-30,1968-01-01,1975-12-01
7704,BRITT (AUT),ONT,45.8,-80.5333333333333,190,1994-02-01,2001-06-01,1992-12-02,2010-07-05,null,null
3726,BROAD VALLEY,MAN,50.9833333333333,-97.4666666666667,259.1,null,null,1970-06-01,1995-01-31,1970-01-01,1995-01-01
2854,BROADVIEW,SASK,50.3833333333333,-102.55,597.4,null,null,1904-08-01,1938-10-31,1904-01-01,1938-12-01
2855,BROADVIEW,SASK,50.3680555555556,-102.570833333333,599.8,1965-02-01,2013-12-30,1965-02-01,2013-12-30,1965-01-01,2007-11-01
26851,BROADVIEW,SASK,50.3833333333333,-102.683333333333,600.1,1995-06-01,2003-09-30,1995-06-01,2009-10-19,1996-01-01,2003-09-01
2856,BROADVIEW A,SASK,50.25,-102.533333333333,619.7,1953-01-01,1965-01-31,1938-07-01,1965-01-31,1938-01-01,1965-12-01
3870,BROCHET A,MAN,57.8862222222222,-101.681444444444,346.3,1953-01-01,1979-12-31,1948-08-01,2009-09-30,1948-01-01,2007-11-01
31407,BROCKET AGDM,ALTA,49.6166666666667,-113.816666666667,1072.7,2002-01-07,2013-12-30,2001-12-01,2013-12-30,2002-02-01,2007-11-01
4235,BROCKVILLE,ONT,44.6,-75.7,91.4,null,null,1871-10-01,1980-08-31,1871-01-01,1980-12-01
47567,BROCKVILLE CLIMATE,ONT,44.6352777777778,-75.7483333333333,120.4,2008-10-21,2013-12-30,2008-11-20,2013-12-30,null,null
4236,BROCKVILLE PCC,ONT,44.6,-75.6666666666667,96,null,null,1965-08-01,2013-12-29,1965-01-01,2006-12-01
6124,BROCKWAY,NB,45.5,-67.1166666666667,83.8,null,null,1958-02-01,1966-12-31,1958-01-01,1966-12-01
4879,BRODDYTOWN,ONT,43.6166666666667,-79.6,144.8,null,null,1951-07-01,1956-08-31,1951-01-01,1956-12-01
3727,BROKENHEAD,MAN,50.2666666666667,-96.5166666666667,228.6,null,null,1981-08-01,1984-10-31,1981-01-01,1984-12-01
5325,BROME,QUE,45.1833333333333,-72.5666666666667,205.7,null,null,1875-06-01,2013-10-31,1875-01-01,2013-10-01
5326,BROMONT,QUE,45.3,-72.6333333333333,175.3,null,null,1968-07-01,1978-06-30,1968-01-01,1978-12-01
5327,BROMPTONVILLE,QUE,45.4833333333333,-71.95,130,null,null,1957-06-01,2013-10-31,1957-01-01,2013-10-01
1488,BRONSON CREEK,BC,56.6666666666667,-131.1,107,null,null,1989-05-01,1999-09-30,1989-01-01,1999-09-01
3476,BROOKDALE,MAN,50.0166666666667,-99.5666666666667,392.4,null,null,1987-08-01,2003-11-30,1987-01-01,2003-11-01
989,BROOKMERE,BC,49.8166666666667,-120.866666666667,972,null,null,1986-07-01,1994-04-30,1986-01-01,1994-12-01
2194,BROOKS,ALTA,50.5833333333333,-111.9,755.3,1966-02-14,1979-03-31,1966-02-01,1980-05-31,1966-01-01,1980-12-01
