ID,NAME,PROVINCE,LATITUDE,LONGITUDE,ELEVATION
10700,(AE) BOW SUMMIT,ALTA,51.7,-116.466666666667,2080
625,100 MILE HOUSE,BC,51.65,-121.266666666667,929.6
1308,100 MILE HOUSE,BC,51.64695,-121.302516666667,1059.2
1309,100 MILE HOUSE 6NE,BC,51.6813888888889,-121.216944444444,928
626,108 MILE HOUSE,BC,51.75,-121.333333333333,957.1
559,108 MILE HOUSE ABEL LAKE,BC,51.7048333333333,-121.404166666667,993.9
1224,108 MILE HOUSE WATSON LAKE,BC,51.7,-121.333333333333,890
627,150 MILE HOUSE,BC,52.1166666666667,-121.933333333333,737.6
628,150 MILE HOUSE 7N,BC,52.2166666666667,-122,883.9
6755,26 MILE DEPOT,NFLD,48.4166666666667,-57.0666666666667,266.7
1321,70 MILE HOUSE,BC,51.3,-121.4,1079.9
3066,ABBEY,SASK,50.7,-108.783333333333,694.9
701,ABBOTSFORD,BC,49.0166666666667,-122.333333333333,0
50308,ABBOTSFORD A,BC,49.0252777777778,-122.36,59.1
702,ABBOTSFORD A,BC,49.0252777777778,-122.36,59.1
703,ABBOTSFORD EAST,BC,49.0333333333333,-122.25,7.6
704,ABBOTSFORD KING ROAD,BC,49.0333333333333,-122.3,61
705,ABBOTSFORD UPPER SUMAS,BC,49.05,-122.266666666667,9.1
32232,ABEE AGDM,ALTA,54.2833333333333,-112.966666666667,664
5308,ABERCORN,QUE,45.0333333333333,-72.6666666666667,149.4
6288,ABERCROMBIE POINT,NS,45.65,-62.7166666666667,10.7
3272,ABERDEEN,SASK,52.4,-106.166666666667,518.2
1166,ABERFELDIE,BC,49.5,-115.366666666667,804.7
3981,ABITIBI CAMP 11,ONT,48.85,-89.1166666666667,491
3980,ABITIBI CAMP 11,ONT,48.9333333333333,-89.35,442
3982,ABITIBI CAMP 228,ONT,48.9333333333333,-89.25,472.4
3983,ABITIBI CAMP 230,ONT,49.35,-89.3666666666667,457.2
3984,ABITIBI CAMP 300,ONT,49.6333333333333,-89.75,426.7
4141,ABITIBI CANYON,ONT,49.8833333333333,-81.5666666666667,204.2
6018,ABITIBI POST,QUE,48.7166666666667,-79.3666666666667,259.1
6106,ACADIA FOREST EXP ST,NB,45.9902777777778,-66.3633333333333,54
47748,ACADIA VALLEY,ALTA,51.0661361111111,-110.316969444444,735
2030,ACADIA VALLEY,ALTA,51.1833333333333,-110.233333333333,732
2032,ACADIA VALLEY CDA EPF,ALTA,51.0666666666667,-110.133333333333,0
2031,ACADIA VALLEY EXP ST,ALTA,51.0833333333333,-110.283333333333,712.9
2033,ACADIA VALLEY MACTAVISH,ALTA,51.1961138888889,-110.168891666667,743.7
2034,ACADIA VALLEY VANDYNE,ALTA,51.0333333333333,-110.3,708.6
6107,ACADIEVILLE,NB,46.7333333333333,-65.2833333333333,61
2035,ACME CDA EPF,ALTA,51.5,-113.416666666667,905
14,ACTIVE PASS,BC,48.8666666666667,-123.283333333333,4
4849,ACTON BEARDMORE,ONT,43.6333333333333,-80.0333333333333,320
4728,ACTON MONITOR STN,ONT,43.65,-80.05,411.5
5309,ACTON VALE,QUE,45.65,-72.5666666666667,94.5
2649,ADAIR LO,ALTA,59.1666666666667,-118.333333333333,365.8
2460,ADAMS CREEK LO,ALTA,53.7166666666667,-118.566666666667,2209.8
1225,ADAMS LAKE SKWAAM BAY,BC,51.0833333333333,-119.8,457.2
374,ADDENBROKE ISLAND,BC,51.6035277777778,-127.863861111111,21.3
2331,ADEN,ALTA,49.05,-111.316666666667,1036.3
983,ADRA,BC,49.7333333333333,-119.583333333333,1002.5
707,AGASSIZ CDA,BC,49.2430555555556,-121.760277777778,15
708,AGASSIZ MOUNTAIN INSTITUTE,BC,49.2666666666667,-121.833333333333,30
706,AGASSIZ RCS,BC,49.2430555555556,-121.760277777778,19.3
4105,AGNEW MINE,ONT,46.4333333333333,-81.6166666666667,305.1
3985,AGUASABON,ONT,48.7833333333333,-87.1666666666667,189
5886,AIGREMONT,QUE,49.3,-73.85,403.9
4729,AILSA CRAIG,ONT,43.15,-81.5333333333333,228.6
2181,AIRDRIE,ALTA,51.3166666666667,-113.883333333333,1082
1515,AISHIHIK A,YT,61.65,-137.483333333333,966.2
452,AIYANSH,BC,55.2333333333333,-129.016666666667,228.6
453,AIYANSH 2SE,BC,55.1833333333333,-129.05,213.4
9604,AKAMINA PASS,ALTA,49.0266666666667,-114.051111111111,1800
1623,AKLAVIK A,NWT,68.2233333333333,-135.005833333333,6.4
1624,AKLAVIK RADIOSONDE,NWT,68.2333333333333,-135,9.1
49308,AKULIVIK,QUE,60.83421,-78.16956,77
10789,AKULIVIK A,QUE,60.8166666666667,-78.15,23.2
2839,ALAMEDA CDA EPF,SASK,49.25,-102.283333333333,580
5887,ALBANEL,QUE,48.8833333333333,-72.45,152
6518,ALBANY,PEI,46.2666666666667,-63.5833333333333,33.5
221,ALBERNI BEAVER CREEK,BC,49.3666666666667,-124.933333333333,91.4
222,ALBERNI CITY RESERVOIR,BC,49.2666666666667,-124.783333333333,64.6
223,ALBERNI LUPSI CUPSI,BC,49.25,-124.816666666667,9.1
224,ALBERNI MCCOY LAKE,BC,49.2833333333333,-124.883333333333,42.7
225,ALBERNI ROBERTSON CREEK,BC,49.337225,-124.981969444444,73.8
46127,ALBERT HALL AGCM,ALTA,53.1133344444444,-111.181112777778,658
15,ALBERT HEAD,BC,48.4,-123.483333333333,17
26775,ALBERTON,ONT,43.1833333333333,-80.05,215
6519,ALBERTON,PEI,46.85,-64.0166666666667,3
49988,ALBERTON SNOW,PEI,46.8147472222222,-64.0611361111111,8.5
5759,ALBERTVILLE,QUE,48.3,-67.35,335.3
4850,ALBION,ONT,43.9333333333333,-79.8333333333333,274.3
4851,ALBION FIELD CENTRE,ONT,43.9166666666667,-79.8333333333333,281.9
1351,ALBREDA,BC,52.6666666666667,-119.2,873.3
1807,ALDER FLATS LO,ALTA,52.8,-114.816666666667,1075.9
709,ALDERGROVE,BC,49.1166666666667,-122.483333333333,76.2
710,ALDERGROVE 2,BC,49.0333333333333,-122.483333333333,60
711,ALDERGROVE 48 AVENUE,BC,49.0833333333333,-122.516666666667,85
699,ALDERGROVE CENTRE,BC,49.05,-122.466666666667,60
4852,ALDERSHOT,ONT,43.3166666666667,-79.8666666666667,144.8
1731,ALERT,NU,82.5177777777778,-62.2805555555556,30.5
7559,ALERT A,NU,82.5166666666667,-62.2833333333333,30.5
7350,ALERT BASE (AUT),NU,82.5,-62.3666666666667,92
137,ALERT BAY,BC,50.5833333333333,-126.933333333333,59.4
42463,ALERT CLIMATE,NU,82.5,-62.3333333333333,65.4
10744,ALERT UA,NU,82.5,-62.3333333333333,65.4
3461,ALEXANDER,MAN,49.8333333333333,-100.3,427
42003,ALEXANDRIA,ONT,45.3236111111111,-74.6141666666667,77
499,ALEXIS CREEK,BC,52.1,-123.616666666667,853.4
501,ALEXIS CREEK,BC,52.1333333333333,-123.333333333333,723.9
500,ALEXIS CREEK,BC,52.0833333333333,-123.283333333333,800.1
502,ALEXIS CREEK TAUTRI CRK,BC,52.55,-123.183333333333,1219.2
10729,ALEXIS RIVER (AUT),NFLD,52.65,-56.8666666666667,48.3
10729,ALEXIS RIVER (AUT),NFLD,52.65,-56.8666666666667,48.3
565,ALEZA LAKE,BC,54.1166666666667,-122.066666666667,624.8
42006,ALFRED,ONT,45.555,-74.8755555555556,57
4219,ALFRED,ONT,45.55,-74.8833333333333,54
4220,ALFRED AUTOMATIC CLIMATE STATION,ONT,45.55,-74.8833333333333,54
2461,ALGAR LO,ALTA,56.1166666666667,-111.783333333333,780.3
4187,ALGONQUIN PARK,ONT,45.5833333333333,-78.55,432.5
4188,ALGONQUIN PARK EAST,ONT,45.5333333333333,-78.2666666666667,411.5
42967,ALGONQUIN PARK EAST GATE,ONT,45.5333333333333,-78.2666666666667,397
4189,ALGONQUIN PARK WEST,ONT,45.3333333333333,-78.85,426.7
375,ALICE ARM,BC,55.6833333333333,-129.5,314.2
376,ALICE ARM,BC,55.4666666666667,-129.466666666667,1.5
2840,ALIDA,SASK,49.45,-101.8,585.2
2037,ALIX,ALTA,52.3666666666667,-113.3,853.4
2036,ALIX,ALTA,52.3833333333333,-113.166666666667,787.9
566,ALKALI LAKE,BC,51.7833333333333,-122.283333333333,0
4400,ALLAN PARK,ONT,44.1666666666667,-80.9333333333333,285
1808,ALLIANCE,ALTA,52.4333333333333,-111.783333333333,715.7
46327,ALLIANCE AGCM,ALTA,52.3152797222222,-111.778612777778,737
1809,ALLIANCE GREENVIEW,ALTA,52.3833333333333,-111.8,731.5
1810,ALLIANCE SOUTH,ALTA,52.4166666666667,-111.783333333333,713.2
938,ALLISON PASS,BC,49.1333333333333,-120.833333333333,1341.1
939,ALLISON PASS DOH,BC,49.1166666666667,-120.866666666667,1339.9
6520,ALLISTON,PEI,46.0666666666667,-62.6,61
4401,ALLISTON,ONT,44.15,-79.85,213.4
4402,ALLISTON NELSON,ONT,44.1513966666667,-79.8722466666667,221
47227,ALLISTON SNOW,PEI,46.0666666666667,-62.6,61
4853,ALLOA,ONT,43.7166666666667,-79.8666666666667,262.1
6108,ALMA,NB,45.6,-64.95,42.7
3571,ALMASIPPI,MAN,49.55,-98.2,274.3
4221,ALMONTE,ONT,45.1833333333333,-76.2333333333333,125
3769,ALONSA,MAN,50.8333333333333,-99.05,274.3
712,ALOUETTE LAKE,BC,49.2833333333333,-122.483333333333,117.3
713,ALOUETTE POWER HOUSE,BC,49.3666666666667,-122.316666666667,91.4
3205,ALSASK,SASK,51.3833333333333,-110,701
2038,ALSASK,ALTA,51.3833333333333,-110.033333333333,701
3067,ALSASK,SASK,51.4166666666667,-109.9,661.4
3068,ALSASK HARDENE,SASK,51.3333333333333,-109.85,658.4
291,ALTA LAKE,BC,50.15,-122.95,667.5
293,ALTA LAKE 2,BC,50.15,-122.983333333333,640.1
292,ALTA LAKE NORTHAIR MINE,BC,50.1166666666667,-123.1,1005.8
2332,ALTAWAN,ALTA,49.2452797222222,-110.013612222222,944.9
4854,ALTON,ONT,43.85,-80.0833333333333,401.4
3572,ALTONA,MAN,49.1,-97.55,247.8
3573,ALTONA CFAM,MAN,49.1,-97.55,247.5
3574,ALTONA SOUTH,MAN,49.05,-97.5666666666667,249.9
4541,ALVINSTON,ONT,42.8666666666667,-81.8833333333333,221
3770,AMARANTH,MAN,50.6333333333333,-98.7166666666667,259.1
2650,AMBER LO,ALTA,59.1833333333333,-119.45,579.1
7103,AMHERST (AUT),NS,45.85,-64.2666666666667,23
5760,AMHERST ISLAND CDA EPF,QUE,47.2166666666667,-61.9666666666667,15.2
4607,AMHERSTBURG,ONT,42.1033583333333,-83.0944633333333,182
1811,AMISK,ALTA,52.6833333333333,-111.116666666667,701
6019,AMOS,QUE,48.5666666666667,-78.1333333333333,310
226,AMPHITRITE POINT,BC,48.9166666666667,-125.533333333333,10.7
227,AMPHITRITE POINT,BC,48.9211130555556,-125.541111944444,26.5
26887,AMQUI,QUE,48.4719444444444,-67.4347222222222,166
5761,AMQUI,QUE,48.5166666666667,-67.45,182.9
2841,AMULET,SASK,49.6166666666667,-104.733333333333,727.6
3273,AMYOT LAKE,SASK,53.7,-106.683333333333,0
504,ANAHIM LAKE,BC,52.4666666666667,-125.316666666667,1108
503,ANAHIM LAKE,BC,52.35,-125.333333333333,1097.3
505,ANAHIM LAKE 5 MILE RANCH,BC,52.5333333333333,-125.066666666667,1246
1812,ANDREW,ALTA,54.0166666666667,-112.233333333333,610
32253,ANDREW AGDM,ALTA,53.9169444444444,-112.279166666667,625
3069,ANEROID,SASK,49.7166666666667,-107.3,754.1
5574,ANGERS,QUE,45.55,-75.55,91
3206,ANGLIA,SASK,51.5666666666667,-108.166666666667,567.2
4403,ANGUS,ONT,44.3166666666667,-79.8666666666667,191.1
27001,ANGUS CAMPHILL,ONT,44.2833333333333,-79.85,212
1625,ANGUS TOWER,NWT,60.35,-114.283333333333,246.9
714,ANNACIS ISLAND,BC,49.1833333333333,-122.933333333333,4.6
6289,ANNAPOLIS ROYAL,NS,44.75,-65.5166666666667,7.7
1516,ANNIE LAKE ROBINSON,YT,60.4666666666667,-134.833333333333,820
3575,ANOLA,MAN,49.8833333333333,-96.65,255.1
5762,ANSE AU GRIFFON,QUE,48.9333333333333,-64.2833333333333,61
2462,ANSELL LO,ALTA,53.55,-116.5,968
2463,ANSELMO,ALTA,53.9666666666667,-115.416666666667,853.4
2362,ANTHRACITE,ALTA,51.2,-115.5,1386.8
5763,ANTICOSTI HEATH POINT,QUE,49.1,-61.7,9.1
5764,ANTICOSTI SW POINT,QUE,49.4,-63.55,7.3
5765,ANTICOSTI WEST POINT,QUE,49.8666666666667,-64.5333333333333,9.1
6291,ANTIGONISH,NS,45.6166666666667,-61.9833333333333,30.5
6290,ANTIGONISH,NS,45.6333333333333,-61.9666666666667,9.1
47247,ANTIGONISH SNOW,NS,45.6166666666667,-61.9,30
2039,ANTLER HILL,ALTA,52.05,-113.85,944.9
1517,ANVIL,YT,62.3666666666667,-133.383333333333,1158.2
294,ANVIL ISLAND,BC,49.5166666666667,-123.3,30.5
377,ANYOX,BC,55.4166666666667,-129.816666666667,112.8
2464,ANZAC,ALTA,56.45,-111.05,487.7
2465,ANZAC,ALTA,56.45,-111.033333333333,495.3
984,APEX MTN LODGE,BC,49.4,-119.916666666667,1889.8
4222,APPLE HILL,ONT,45.2166666666667,-74.75,91.4
6901,APPLETON,ONT,45.18584,-76.112805,133
4730,APPS MILL,ONT,43.1333333333333,-80.3833333333333,230.1
6292,APRIL BROOK IHD,NS,46.2333333333333,-61.1333333333333,61
5152,APSLEY,ONT,44.7666666666667,-78.0833333333333,274.3
982,ARAWANA,BC,49.5833333333333,-119.566666666667,518.2
3717,ARBORG,MAN,50.9333333333333,-97.0833333333333,224
3431,ARCHERWILL,SASK,52.4333333333333,-104.016666666667,556
2842,ARCOLA CDA EPF,SASK,49.6333333333333,-102.533333333333,603.5
2842,ARCOLA CDA EPF,SASK,49.6333333333333,-102.533333333333,603.5
1732,ARCTIC BAY,NU,73.0333333333333,-85.15,11.3
48973,ARCTIC BAY,NU,73.0063888888889,-85.0472222222222,21.9
50497,ARCTIC BAY A,NU,73.0063888888889,-85.0472222222222,21.9
49328,ARCTIC BAY A,NU,73.0063888888889,-85.0472222222222,21.9
29517,ARCTIC BAY CS,NU,72.9927777777778,-85.0122222222222,10
1626,ARCTIC RED RIVER,NWT,67.45,-133.733333333333,30.5
4223,ARDEN,ONT,44.7,-76.95,0
1099,ARGENTA,BC,50.1666666666667,-116.933333333333,548.6
10113,ARGENTIA (AUT),NFLD,47.2938888888889,-53.9933333333333,19
6557,ARGENTIA A,NFLD,47.3,-54,15.5
6556,ARGENTIA A,NFLD,47.3,-54,13.7
6293,ARGYLE HEAD,NS,43.8333333333333,-65.8666666666667,15.2
6521,ARGYLE SHORE,PEI,46.1666666666667,-63.35,15.2
4542,ARKONA,ONT,43.0333333333333,-81.9166666666667,182.9
2182,ARMADA EXP ST,ALTA,50.4,-112.683333333333,911.4
5766,ARMAGH,QUE,46.75,-70.5333333333333,358
5767,ARMAGH STATION,QUE,46.7166666666667,-70.6166666666667,312.4
1813,ARMENA,ALTA,53.1333333333333,-112.95,746.8
3432,ARMIT,SASK,52.8333333333333,-101.783333333333,308
3986,ARMSTRONG,ONT,50.2833333333333,-89.15,341.7
1226,ARMSTRONG,BC,50.45,-119.183333333333,359
7581,ARMSTRONG (AUT),ONT,50.3,-89.0333333333333,350.5
3987,ARMSTRONG (AUT),ONT,50.2936111111111,-88.9052777777778,322.5
985,ARMSTRONG GRANDVIEW,BC,50.4,-119.283333333333,502.9
1227,ARMSTRONG HULLCAR,BC,50.5,-119.216666666667,505
3988,ARMSTRONG JELLIEN,ONT,50.25,-89.1,341.4
1228,ARMSTRONG NORTH,BC,50.4666666666667,-119.133333333333,373
6943,ARMSTRONG OTTER LAKE,BC,50.4,-119.25,342.4
10206,ARNES,MAN,50.8,-96.95,221.1
2029,ARNESON,ALTA,51.2333333333333,-110.05,754.4
6558,ARNOLDS COVE,NFLD,47.75,-54,15.2
4224,ARNPRIOR,ONT,45.4333333333333,-76.3833333333333,99.1
4225,ARNPRIOR GRANDON,ONT,45.4166666666667,-76.3666666666667,106.7
6109,AROOSTOOK,NB,46.7122222222222,-67.7155555555556,80
3433,ARRAN,SASK,51.9666666666667,-101.733333333333,449.6
3434,ARRAN 23N,SASK,52.2,-101.633333333333,449.9
1391,ARRAS,BC,55.7333333333333,-120.533333333333,676.7
3462,ARROW RIVER,MAN,50.1666666666667,-100.85,486.2
2183,ARROWWOOD,ALTA,50.7333333333333,-113.15,936.3
5310,ARTHABASKA,QUE,46.0166666666667,-71.95,140
4731,ARTHUR,ONT,43.8166666666667,-80.5666666666667,452
6110,ARTHURETTE BIRCH RIDGE,NB,46.75,-67.4666666666667,214.9
3207,ARTLAND,SASK,52.7833333333333,-109.9,640.1
5575,ARUNDEL,QUE,45.95,-74.6166666666667,191.4
50718,ARVIAT A,NU,61.0938888888889,-94.0716666666667,10.4
1708,ARVIAT A,NU,61.1,-94.0666666666667,10.4
50557,ARVIAT A,NU,61.0938888888889,-94.0716666666667,10.4
47427,ARVIAT AWOS,NU,61.1,-94.0666666666667,10.4
41576,ARVIAT CLIMATE,NU,61.1,-94.0666666666667,9.8
5888,ARVIDA,QUE,48.4333333333333,-71.1666666666667,102.1
5311,ASBESTOS,QUE,45.7666666666667,-71.95,228.6
6087,ASBESTOS HILL,QUE,61.8,-73.95,483.7
228,ASH RIVER,BC,49.4666666666667,-125.083333333333,304.8
229,ASH RIVER GENERATING STN,BC,49.3666666666667,-125.15,91.4
1230,ASHCROFT,BC,50.7333333333333,-121.266666666667,331
1229,ASHCROFT,BC,50.7166666666667,-121.283333333333,304.8
48708,ASHCROFT,BC,50.7083347222222,-121.281389166667,327
1232,ASHCROFT M,BC,50.7166666666667,-121.333333333333,487.7
1231,ASHCROFT NORTH,BC,50.7333333333333,-121.266666666667,320
1233,ASHCROFT VENABLES VLY,BC,50.55,-121.333333333333,640
30681,ASHDALE,NS,45,-63.8833333333333,70.1
3771,ASHERN,MAN,51.1333333333333,-98.3666666666667,263
3767,ASHERN NORTHWEST,MAN,51.2,-98.3833333333333,266.7
4226,ASHTON,ONT,45.2,-75.9666666666667,136.9
6111,ASHTON HILL,NB,47.1,-65.7333333333333,278.9
4227,ASHTON STN SESIA FARM,ONT,45.1666666666667,-76.0666666666667,137.2
6767,ASHUANIPI,NFLD,52.5333333333333,-66.2333333333333,545.6
3772,ASHVILLE,MAN,51.2833333333333,-100.283333333333,320
3274,ASQUITH,SASK,52.1333333333333,-107.233333333333,519.4
3070,ASSINIBOIA,SASK,49.7333333333333,-105.966666666667,723.9
10805,ASSINIBOIA AIRPORT,SASK,49.7291916666667,-105.946113888889,725.5
2652,ASSUMPTION,ALTA,58.7,-118.716666666667,335.3
2651,ASSUMPTION,ALTA,58.7,-118.683333333333,304.8
2466,ATHABASCA,ALTA,54.7166666666667,-113.283333333333,515
2459,ATHABASCA 1,ALTA,54.7222230555556,-113.2880575,514.7
2467,ATHABASCA 2,ALTA,54.8216686111111,-113.539724166667,626.3
2468,ATHABASCA 3,ALTA,54.7166666666667,-113.283333333333,526.7
47047,ATHABASCA AGCM,ALTA,54.6347230555556,-113.381946666667,635
2469,ATHABASCA EXP ST,ALTA,54.7,-113.383333333333,579.1
2470,ATHABASCA LANDING,ALTA,54.7166666666667,-113.283333333333,502.9
2471,ATHABASCA LO,ALTA,53.4166666666667,-117.783333333333,1630.7
4228,ATHENS,ONT,44.65,-75.9166666666667,121.9
2653,ATIKAMEG,ALTA,55.9,-115.65,650.7
3929,ATIKOKAN,ONT,48.75,-91.6166666666667,395.3
10220,ATIKOKAN (AUT),ONT,48.7611111111111,-91.6280555555556,389.3
3930,ATIKOKAN CLI,ONT,48.7333333333333,-91.6333333333333,391.4
3931,ATIKOKAN MARMION,ONT,48.8,-91.5833333333333,442
1627,ATKINSON POINT,NWT,69.9333333333333,-131.4,3
2040,ATLEE,ALTA,50.8166666666667,-110.95,792.5
47787,ATLEE AGCM,ALTA,50.8100194444444,-111.005563888889,795
1485,ATLIN,BC,59.5666666666667,-133.7,673.6
2472,ATMORE,ALTA,54.8166666666667,-112.55,609.6
32231,ATMORE AGDM,ALTA,54.7816666666667,-112.825,574
506,ATNARKO PARKS CAMP,BC,52.4166666666667,-125.916666666667,289.9
3913,ATTAWAPISKAT,ONT,52.9166666666667,-82.45,9.1
2843,ATWATER,SASK,50.8166666666667,-102.216666666667,536.1
5312,AUDET,QUE,45.65,-70.7333333333333,513.6
27118,AULAVIK NATIONAL PARK,NWT,74.1388888888889,-119.988888888889,32
10855,AUPALUK A,QUE,59.3027777777778,-69.5997222222222,36.3
4855,AURORA,ONT,43.95,-79.4,270.1
4855,AURORA,ONT,43.95,-79.4,270.1
1814,AURORA LO,ALTA,52.65,-115.716666666667,1341.1
4856,AURORA MOE,ONT,44.0166666666667,-79.4666666666667,259.1
41803,AURORA NE,ONT,44.0166666666667,-79.45,260
4857,AURORA PAYMENT,ONT,43.9833333333333,-79.4666666666667,281.9
3773,AUSTIN,MAN,49.9,-98.9833333333333,327.7
5313,AUTEUIL,QUE,45.65,-73.7333333333333,53
1234,AVOLA,BC,51.7833333333333,-119.333333333333,609.6
6294,AVON,NS,44.8833333333333,-64.2166666666667,23.7
6921,AVONDALE,NS,45.0166666666667,-64.1166666666667,42.1
6559,AVONDALE CDA,NFLD,47.4166666666667,-53.2333333333333,132.6
2844,AVONLEA EXP ST,SASK,50.0166666666667,-105.05,601.1
4229,AVONMORE,ONT,45.1700116666667,-74.97084,91.4
2845,AYLESBURY,SASK,50.9333333333333,-105.7,579.1
2846,AYLESBURY CDA EPF,SASK,51,-105.666666666667,576.1
6295,AYLESFORD,NS,45.0333333333333,-64.8666666666667,39.9
27323,AYLMER,ONT,42.7666666666667,-80.9833333333333,232
4608,AYLMER,ONT,42.7666666666667,-80.9833333333333,228.6
4609,AYLMER 2,ONT,42.7666666666667,-81,231.6
4610,AYLMER ONT HYDRO,ONT,42.7833333333333,-80.9833333333333,235.9
3407,AYLSHAM,SASK,53.2,-103.8,362.1
4732,AYR,ONT,43.2833333333333,-80.45,289.6
4404,AYTON,ONT,44.0833333333333,-80.8333333333333,361
47727,AZURE,ALTA,50.5119444444444,-114.013061111111,1143
10187,BABBAGE RIVER (AUT),YT,68.8166666666667,-138.75,182.9
454,BABINE LAKE FISHERIES,BC,55.0666666666667,-126.533333333333,713.2
455,BABINE LAKE HALIFAX BAY,BC,55.05,-126.483333333333,711.7
456,BABINE LAKE PINKUT CREEK,BC,54.4463888888889,-125.459722222222,713.2
6296,BACCARO,NS,43.4666666666667,-65.4666666666667,3
10914,BACCARO POINT,NS,43.4494444444444,-65.4713888888889,12.7
46007,BACCARO PT,NS,43.4508333333333,-65.4716666666667,4.6
10882,BACHELORS ISLAND MARINE,MAN,51.75,-99.9,255.9
10723,BACK RIVER (AUT),NU,66.086115,-96.5108333333333,61
3208,BAD LAKE IHD 102,SASK,51.3166666666667,-108.416666666667,637
6297,BADDECK,NS,46.1,-60.75,7.6
30386,BADDECK BELL,NS,46.1,-60.75,16.6
6560,BADGER,NFLD,48.9833333333333,-56.05,100.6
6561,BADGER (AUT),NFLD,48.9666666666667,-56.0666666666667,102.7
6562,BADGER C,NFLD,48.9666666666667,-56.05,102
5889,BAGOTVILLE A,QUE,48.3333333333333,-71,159.1
5659,BAIE COMEAU,QUE,49.2333333333333,-68.1833333333333,68.6
5663,BAIE COMEAU CBA,QUE,49.2166666666667,-68.15,7.6
5757,BAIE DES SABLES,QUE,48.7,-67.8333333333333,99
5660,BAIE JOHAN BEETZ,QUE,50.2833333333333,-62.8,7.6
5664,BAIE ST PAUL,QUE,47.4166666666667,-70.5,32
6563,BAIE VERTE,NFLD,49.9833333333333,-56.1833333333333,110.3
6564,BAIE VERTE JUNCTION,NFLD,49.45,-56.4333333333333,78
6086,BAIE WAKEHAM,QUE,61.6,-71.9666666666667,6.1
26889,BAIE-COMEAU,QUE,49.2591666666667,-68.1458333333333,129.5
48968,BAIE-COMEAU,QUE,49.1325,-68.2044444444444,21.6
30173,BAIE-COMEAU A,QUE,49.1333333333333,-68.2,21.6
5662,BAIE-COMEAU A,QUE,49.1333333333333,-68.2,21.6
2473,BAIRD LAKE,ALTA,54.35,-114.433333333333,670.6
51417,BAKER LAKE A,NU,64.2988888888889,-96.0777777777778,18.6
1709,BAKER LAKE A,NU,64.2988888888889,-96.0777777777778,18.6
42583,BAKER LAKE CLIMATE,NU,64.3166666666667,-96,50.8
1392,BAKER MINE,BC,57.2,-126.95,1645.9
4405,BALA,ONT,45,-79.5,225.6
44967,BALACLAVA,ONT,44.6702833333333,-80.776675,222
2847,BALCARRES,SASK,50.7833333333333,-103.616666666667,576.1
2654,BALD MOUNTAIN LO,ALTA,54.8166666666667,-118.916666666667,938.8
1393,BALDONNEL,BC,56.2333333333333,-120.683333333333,685.8
3463,BALDUR,MAN,49.2763611111111,-99.2923611111111,449.9
6880,BALDUR 5 NORTHEAST,MAN,49.4166666666667,-99.1666666666667,425.3
43540,BALDWIN,ONT,44.266955,-79.3188966666667,229
567,BALDY HUGHES,BC,53.6166666666667,-122.95,1128.1
2363,BALDY LO,ALTA,52.55,-116.116666666667,2083.3
4858,BALLANTRAE,ONT,44.05,-79.3,327.7
2655,BALLATER,ALTA,55.5780563888889,-117.209445,563.8
49048,BALLATER AGCM,ALTA,55.5769444444444,-117.235555555556,560
138,BALLENAS ISLAND,BC,49.3502777777778,-124.160277777778,12.9
2474,BALM,ALTA,53.9166666666667,-115.25,777.2
6112,BALTIMORE,NB,45.8833333333333,-64.8166666666667,182.9
16,BAMBERTON OCEAN CEMENT,BC,48.5833333333333,-123.516666666667,85.3
230,BAMFIELD,BC,48.8333333333333,-125.1,21.3
231,BAMFIELD EAST,BC,48.8333333333333,-125.116666666667,4
232,BAMFIELD WEST,BC,48.8333333333333,-125.15,3
2475,BANANA BELT,ALTA,55.2,-116.416666666667,670.6
5153,BANCROFT,ONT,45.05,-77.85,326.7
26799,BANCROFT AUTO,ONT,45.0713888888889,-77.8788888888889,330.7
5154,BANCROFT L'AMABLE,ONT,45,-77.8,347
5155,BANCROFT OMNR,ONT,45.05,-77.8666666666667,344.4
2364,BANFF,ALTA,51.1833333333333,-115.566666666667,1383.7
8811,BANFF (AUT),ALTA,51.1833333333333,-115.566666666667,1396.9
27210,BANFF CR10,ALTA,51.2,-115.55,1397
27378,BANFF CS,ALTA,51.1933583333333,-115.552236111111,1396.9
31198,BANFF SPRINGS,ALTA,51.1666666666667,-115.55,1370
6522,BANGOR,PEI,46.35,-62.6833333333333,36.6
2848,BANGOR,SASK,50.9,-102.283333333333,526.4
986,BANKEIR,BC,49.7166666666667,-120.233333333333,1097.3
987,BANKIER CHAIN LAKE,BC,49.7,-120.283333333333,1020
2476,BAPTISTE LAKE,ALTA,54.7333333333333,-113.533333333333,575
4063,BAR RIVER,ONT,46.4333333333333,-84.05,180
3951,BARCLAY,ONT,49.8333333333333,-92.8166666666667,381.3
5576,BARK LAKE,QUE,46.5,-75.3333333333333,364.2
4230,BARK LAKE DAM,ONT,45.4166666666667,-77.8,335.3
568,BARKERVILLE,BC,53.0691666666667,-121.514722222222,1283
5307,BARNSTON,QUE,45.0833333333333,-71.8833333333333,445
31408,BARNWELL AGDM,ALTA,49.8,-112.3,824.2
46447,BARONS AGCM,ALTA,50.0258355555556,-113.224446944444,967
2184,BARONS EXP ST,ALTA,50.0333333333333,-113.166666666667,961
2184,BARONS EXP ST,ALTA,50.0333333333333,-113.166666666667,961
2185,BARONS EXP ST 2,ALTA,50,-112.916666666667,960.1
5946,BARRAGE A LAC KEMPT,QUE,47.55,-74.1833333333333,420.6
5976,BARRAGE ANGLIERS,QUE,47.5519444444444,-79.2358333333333,266.9
5975,BARRAGE CABONGA,QUE,47.3166666666667,-76.4666666666667,365.8
5947,BARRAGE CICONCINE,QUE,47.3833333333333,-73.0333333333333,205.7
5949,BARRAGE GOUIN,QUE,48.35,-74.1,403.9
5945,BARRAGE GOUIN S,QUE,48.35,-74.1,403.9
5768,BARRAGE LAC MORIN,QUE,47.65,-69.5166666666667,198.1
5950,BARRAGE MATTAWIN,QUE,46.85,-73.65,365.8
5577,BARRAGE MERCIER,QUE,46.7166666666667,-75.9833333333333,236.2
5769,BARRAGE MISTIGOUGECHE,QUE,48.1833333333333,-68.0166666666667,320
5578,BARRAGE MITCHINAMECUS,QUE,47.2166666666667,-75.1666666666667,390.1
5770,BARRAGE MITIS,QUE,48.3333333333333,-67.9,266.7
5951,BARRAGE MONDONAC,QUE,47.45,-73.9333333333333,457.2
5977,BARRAGE TEMISCAMINGUE,QUE,46.7097222222222,-79.1011111111111,181.4
6020,BARRAUTE,QUE,48.3666666666667,-77.65,305
4231,BARRETT CHUTE,ONT,45.25,-76.7666666666667,160
2477,BARRHEAD,ALTA,54.1166666666667,-114.366666666667,644
30641,BARRHEAD CS,ALTA,54.0947222222222,-114.4475,648
4406,BARRIE,ONT,44.4,-79.6833333333333,228.6
7697,BARRIE (AUT),ONT,44.3833333333333,-79.7833333333333,295
6298,BARRIE BROOK,NS,45.65,-61.4333333333333,10.7
4407,BARRIE CKVR,ONT,44.35,-79.7,312.4
50048,BARRIE LANDFILL,ONT,44.3852777777778,-79.7361111111111,305
4408,BARRIE WPCC,ONT,44.3758366666667,-79.689725,221
42183,BARRIE-ORO,ONT,44.4833333333333,-79.55,289
27295,BARRIER LAKE,ALTA,51.05,-115.078333333333,2020.5
1235,BARRIERE,BC,51.1833333333333,-120.116666666667,415
5661,BARRIERE CLERMONT,QUE,47.7,-70.2166666666667,83.8
5885,BARRIERE ETIENNICHE,QUE,49.45,-71.3833333333333,320
5658,BARRIERE JALBERT,QUE,48.45,-70.7,175.3
6021,BARRIERE LOUVICOURT,QUE,47.8666666666667,-77.3333333333333,317.3
5884,BARRIERE MILOT,QUE,48.9,-71.7666666666667,167.6
5758,BARRIERE MISTIGOUGECHE,QUE,48.2,-68.0666666666667,312.4
5756,BARRIERE MITIS,QUE,48.3666666666667,-67.9333333333333,236.2
5891,BARRIERE N CHIBOUGAMAU,QUE,49.5,-74.1666666666667,396.2
1236,BARRIERE NORTH,BC,51.2333333333333,-120.15,388.6
5579,BARRIERE QUINN,QUE,46.7166666666667,-76.0666666666667,256.3
5944,BARRIERE ST GUILLAUME,QUE,46.6,-74.1666666666667,411.5
5205,BARRIERE STONEHAM,QUE,47.1666666666667,-71.25,597.4
5890,BARRIERE SUD LA DORE,QUE,48.8166666666667,-72.7333333333333,198.1
5206,BARRIERE TOURILLI,QUE,47.1666666666667,-71.6166666666667,493.8
10969,BARRINGTON CCR,NS,43.4522222222222,-65.4722222222222,21
4232,BARRY'S BAY,ONT,45.4333333333333,-77.6666666666667,289.6
6022,BARVILLE,QUE,48.4166666666667,-77.4666666666667,318.5
3932,BARWICK,ONT,48.6333333333333,-93.9666666666667,335
6915,BAS CARAQUET,NB,47.8022222222222,-64.8333333333333,5
6113,BAS CARAQUET,NB,47.8,-64.8666666666667,10.7
1815,BASELINE LO,ALTA,52.1333333333333,-115.416666666667,1897.1
2041,BASHAW,ALTA,52.6,-112.983333333333,800.1
1816,BASHAW,ALTA,52.6833333333333,-112.866666666667,792.5
2648,BASNETT,ALTA,57.3666666666667,-119.816666666667,760
46467,BASSANO AGCM,ALTA,50.8925013888889,-112.4650025,807
2186,BASSANO DAM,ALTA,50.7833333333333,-112.466666666667,800.1
2187,BASSANO GEM,ALTA,50.9,-112.2,751
2656,BASSET LO,ALTA,58.2,-118.216666666667,755.3
6894,BASSWOOD,MAN,50.25,-100.033333333333,582.8
6114,BATHURST,NB,47.6166666666667,-65.65,12.2
6115,BATHURST,NB,47.6166666666667,-65.65,4.6
6916,BATHURST A,NB,47.6291805555556,-65.7483388888889,58.8
51418,BATHURST A,NB,47.6297222222222,-65.7388888888889,58.8
50657,BATHURST INLET,NU,66.8375138888889,-108.014730555556,5
1628,BATHURST INLET,NU,66.8333333333333,-108.016666666667,13.4
1733,BATHURST ISLAND,NU,75.7166666666667,-98.4166666666667,3
2175,BATTLE CREEK LO,ALTA,49.65,-109.983333333333,1310.6
6768,BATTLE HARBOUR,NFLD,52.2833333333333,-55.5833333333333,15.2
6769,BATTLE HARBOUR LOR,NFLD,52.25,-55.6,9.4
6770,BATTLE HARBOUR MARYS R,NFLD,52.3166666666667,-55.8333333333333,6.1
42164,BATTLE HEADWATERS,ALTA,52.9305555555556,-114.195,654
26859,BATTLE ISLAND,ONT,48.75,-87.55,197
2657,BATTLE RIVER LO,ALTA,57.4833333333333,-117.65,731.5
3209,BATTLEFORD,SASK,52.6833333333333,-108.333333333333,493.8
46608,BATTLEFORDS UNION HOSPITAL SNOW,SASK,52.7725,-108.288333333333,529
6565,BAY D'ESPOIR 1,NFLD,47.8833333333333,-55.8333333333333,11.3
6566,BAY D'ESPOIR 2,NFLD,47.9833333333333,-55.8,22.9
6567,BAY D'ESPOIR GEN STN,NFLD,47.9833333333333,-55.8,22.9
6568,BAY D'ESPOIR LONG POND,NFLD,47.9833333333333,-55.8166666666667,169.2
6569,BAY D'ESPOIR ST ALBANS,NFLD,47.9666666666667,-55.85,229.8
1167,BAYNES LAKE KOOTENAY RIVER,BC,49.2260277777778,-115.2205,800
6299,BAYSWATER,NS,44.5,-64.0833333333333,30.5
3350,BEACON HILL,SASK,54.3352794444444,-109.626112222222,533.4
17,BEAR CREEK,BC,48.5,-124,350.5
4190,BEAR ISLAND,ONT,46.9833333333333,-80.0833333333333,293.8
6300,BEAR RIVER,NS,44.5666666666667,-65.6333333333333,7.6
1629,BEAR TOWER,NWT,60.5166666666667,-113.233333333333,213.4
2042,BEARBERRY,ALTA,51.9,-114.866666666667,1158.2
3989,BEARDMORE,ONT,49.6166666666667,-87.95,304.8
1486,BEARSKIN LAKE,BC,58.2166666666667,-132.266666666667,958
10713,BEARTOOTH ISLAND,SASK,59.2166666666667,-109.7,238
4409,BEATRICE,ONT,45.1333333333333,-79.3833333333333,289.6
4410,BEATRICE 2,ONT,45.1333333333333,-79.4,297.2
44183,BEATRICE CLIMATE,ONT,45.1402777777778,-79.4027777777778,297.2
1394,BEATTON RIVER,BC,57.2166666666667,-121.466666666667,807.7
1395,BEATTON RIVER A,BC,57.3833333333333,-121.383333333333,839.7
3275,BEATTY,SASK,52.8666666666667,-104.85,451.1
5314,BEAUCEVILLE,QUE,46.2,-70.7666666666667,160
26777,BEAUCEVILLE,QUE,46.205,-70.785,229.2
10948,BEAUHARNOIS,QUE,45.1666666666667,-73.9166666666667,33.9
42007,BEAUHARNOIS,QUE,45.3194444444444,-73.9122222222222,22
5207,BEAUPORT,QUE,46.8833333333333,-71.2,84.1
5207,BEAUPORT,QUE,46.8833333333333,-71.2,84.1
27803,BEAUPORT,QUE,46.8369444444444,-71.1972222222222,10
5315,BEAUSEJOUR,QUE,46.6666666666667,-71.1666666666667,106.7
3718,BEAUSEJOUR,MAN,50.1333333333333,-96.2166666666667,302.4
3719,BEAUSEJOUR 2,MAN,50.0333333333333,-96.4666666666667,251.2
10973,BEAUSOLEIL,ONT,44.85,-79.8666666666667,183
8753,BEAUVAIS PARK,ALTA,49.4166666666667,-114.1,1524
3775,BEAVER,MAN,50.05,-98.7,268.2
3774,BEAVER,MAN,50.0166666666667,-98.7,262.7
6871,BEAVER CREEK,SASK,51.9666666666667,-106.7,487.7
1518,BEAVER CREEK A,YT,62.4102777777778,-140.8675,649
6848,BEAVER CREEK YTG,YT,62.3666666666667,-140.866666666667,663
1817,BEAVER HILLS WEST,ALTA,53.5333333333333,-112.533333333333,769.6
10078,BEAVER ISLAND (AUT),NS,44.8166666666667,-62.3333333333333,16
18,BEAVER LAKE,BC,48.5,-123.35,61
2478,BEAVER LAKE RS,ALTA,54.75,-112.95,563.9
50028,BEAVER MINES,ALTA,49.4679166666667,-114.175,1257
2366,BEAVER MINES,ALTA,49.4672277777778,-114.176955555556,1257
6301,BEAVERBANK,NS,44.9,-63.7166666666667,182.9
1077,BEAVERDELL,BC,49.4226666666667,-119.105,780
1078,BEAVERDELL NORTH,BC,49.4783333333333,-119.047,838.2
2658,BEAVERLODGE CDA,ALTA,55.2,-119.4,744.9
10935,BEAVERLODGE CDA,ALTA,55.2,-119.4,745
30669,BEAVERLODGE RCS,ALTA,55.1966672222222,-119.396413888889,745
2659,BEAVERLODGE REDLOW,ALTA,55.3333333333333,-119.4,426.7
4411,BEAVERTON,ONT,44.4166666666667,-79.15,230.1
5316,BECANCOUR,QUE,46.3333333333333,-72.4333333333333,14.9
2849,BECHARD,SASK,50.05,-104.216666666667,577.6
19,BECHER BAY,BC,48.3333333333333,-123.633333333333,12.2
3464,BEDE,MAN,49.3666666666667,-100.933333333333,442
6302,BEDFORD,NS,44.7333333333333,-63.6666666666667,30.5
43406,BEDFORD BASIN,NS,44.70778,-63.6341669444444,3.5
26824,BEDFORD MWO,NS,44.7333333333333,-63.6666666666667,32.9
43123,BEDFORD RANGE,NS,44.7458583333333,-63.6616888888889,9.6
6116,BEECHWOOD,NB,46.5333333333333,-67.6666666666667,91.4
3071,BEECHY,SASK,50.8319611111111,-107.311397222222,659.9
4412,BEETON,ONT,44.1,-79.7833333333333,232.9
4413,BEETON ASSAGI,ONT,44.1166666666667,-79.7666666666667,221
4414,BEETON GRAHAM,ONT,44.0833333333333,-79.7833333333333,228.6
4415,BEETON WATSON,ONT,44.0666666666667,-79.85,251.5
46468,BEISEKER AGCM,ALTA,51.3786130555556,-113.3572225,896
2043,BEISEKER VILLAGE,ALTA,51.3833333333333,-113.533333333333,916
4543,BELGRAVE,ONT,43.8,-81.3833333333333,335.3
5580,BELL FALLS,QUE,45.7666666666667,-74.6833333333333,121.9
49388,BELLA BELLA,BC,52.185,-128.156666666667,43
378,BELLA BELLA,BC,52.1666666666667,-128.15,12.2
44766,BELLA BELLA A,BC,52.185,-128.156666666667,43
379,BELLA BELLA SHEARWATER,BC,52.15,-128.083333333333,12.2
380,BELLA COOLA,BC,52.3705555555556,-126.685,18.3
51419,BELLA COOLA A,BC,52.3875,-126.595833333333,35.7
381,BELLA COOLA A,BC,52.3875,-126.595833333333,35.7
382,BELLA COOLA BC HYDRO,BC,52.3666666666667,-126.816666666667,13.7
6771,BELLE ISLE,NFLD,51.8833333333333,-55.3833333333333,129.8
5952,BELLE PLAGE,QUE,48.6833333333333,-74.0166666666667,411.5
2850,BELLE PLAINE,SASK,50.45,-105.2,582.2
10084,BELLE RIVER,ONT,42.3,-82.7,183.5
6117,BELLEDUNE,NB,47.9,-65.8333333333333,7.6
6917,BELLEDUNE CS,NB,47.9,-65.8333333333333,7.6
5978,BELLETERRE,QUE,47.3833333333333,-78.7,321.6
4859,BELLEVILLE,ONT,44.15057,-77.394735,76.2
4860,BELLEVILLE OWRC,ONT,44.1666666666667,-77.3666666666667,77.7
4861,BELLEVILLE PAR LAB,ONT,44.1666666666667,-77.35,88.4
1818,BELLIS,ALTA,54.1833333333333,-112.166666666667,685.8
1819,BELLIS,ALTA,54.1333333333333,-112.15,660.6
4233,BELLROCK,ONT,44.4833333333333,-76.7666666666667,146.3
6952,BELLS CORNERS,ONT,45.3333333333333,-75.8166666666667,75
46128,BELLSHILL AGCM,ALTA,52.5822241666667,-111.465279722222,721
3465,BELMONT,MAN,49.4,-99.4333333333333,447.4
3466,BELMONT,MAN,49.3,-99.45,481.6
2044,BENALTO,ALTA,52.3,-114.266666666667,963.5
3163,BENGOUGH,SASK,49.3833333333333,-105.133333333333,688.7
1487,BENNETT,BC,59.85,-134.983333333333,662
4106,BENNY,ONT,46.5166666666667,-81.6333333333333,386.8
2851,BENSON,SASK,49.45,-102.983333333333,588
233,BENSON LAKE,BC,50.3666666666667,-127.233333333333,144.8
6570,BENTON,NFLD,48.9,-54.4166666666667,48
3720,BERENS RIVER,MAN,52.35,-97.0333333333333,217.3
26964,BERENS RIVER A,MAN,52.3588888888889,-97.0183333333333,222.2
3721,BERENS RIVER CS,MAN,52.3597366666667,-97.0219533333333,221.9
3933,BERGLAND,ONT,48.95,-94.35,363.9
2479,BERLAND LO,ALTA,54.0833333333333,-117.4,1231
1630,BERNARD HARBOUR,NU,68.7833333333333,-114.833333333333,64.6
2480,BERNY,ALTA,54.75,-112.35,579.1
2045,BERRY CREEK,ALTA,51.0166666666667,-111.033333333333,732
5771,BERRY MOUNTAIN,QUE,48.6666666666667,-66.15,152.4
27602,BERRYS BAY,NS,43.6586283333333,-65.25584,7
6118,BERRYTON,NB,45.9166666666667,-64.8833333333333,106.7
5665,BERSIMIS,QUE,48.9666666666667,-68.6166666666667,45.7
5666,BERSIMIS S,QUE,48.95,-68.65,18.3
5208,BERTHIERVILLE,QUE,46.05,-73.1833333333333,12.2
6119,BERTRAND,NB,47.75,-65.0666666666667,22.9
3435,BERTWELL,SASK,52.6,-102.566666666667,518.2
7105,BERWICK,NS,45.0833333333333,-64.7333333333333,39.6
2660,BERWYN,ALTA,56.15,-117.75,654.7
2661,BERWYN CDA,ALTA,56.15,-117.683333333333,626.4
5317,BETHANIE,QUE,45.5,-72.4333333333333,198.1
5948,BGE C LAC CHATEAUVERT,QUE,47.7666666666667,-73.9,382.5
5772,BIC,QUE,48.3666666666667,-68.7,18.3
5773,BIC,QUE,48.4,-68.6666666666667,23
3210,BICKLEIGH,SASK,51.2944444444444,-108.406686111111,676.4
6120,BIG BALD MOUNTAIN,NB,47.2,-66.4333333333333,0
6120,BIG BALD MOUNTAIN,NB,47.2,-66.4333333333333,0
10842,BIG BAY,NFLD,55.7388888888889,-60.4297222222222,279.8
3164,BIG BEAVER,SASK,49.0166666666667,-105.016666666667,742.9
4191,BIG CHAUDIERE FALLS,ONT,46.15,-80.0166666666667,0
4416,BIG CHUTE,ONT,44.8833333333333,-79.6666666666667,190.5
2188,BIG COULEE,ALTA,49.75,-113.8,1325
507,BIG CREEK,BC,51.6672236111111,-123.073056944444,1175
10811,BIG CREEK (AUT),BC,51.2602777777778,-123.0925,1670
6303,BIG INTERVALE,NS,46.8333333333333,-60.6166666666667,39.6
457,BIG OLIVER CREEK,BC,54.8333333333333,-128.3,121.9
3351,BIG RIVER,SASK,53.8333333333333,-107.033333333333,502.9
3352,BIG RIVER EXP ST,SASK,53.85,-107,485.2
2046,BIG STONE,ALTA,51.1666666666667,-111.2,773.9
31327,BIG STONE LOCKHART,ALTA,51.2,-111.116666666667,789
26860,BIG THUNDER,ONT,48.2833333333333,-89.3833333333333,298.8
50857,BIG TROUT LAKE,ONT,53.8161111111111,-89.8916666666667,222.5
3914,BIG TROUT LAKE,ONT,53.8333333333333,-89.8666666666667,224.1
49488,BIG TROUT LAKE A,ONT,53.8177777777778,-89.8969444444444,222.5
10804,BIG TROUT LAKE READAC,ONT,53.8155555555556,-89.8955555555556,222.2
3776,BIG VALLEY,MAN,50.4666666666667,-99.45,381
2047,BIG VALLEY,ALTA,52.0333333333333,-112.75,829.1
46469,BIG VALLEY AGCM,ALTA,51.9977794444444,-112.802501666667,870
2048,BIG VALLEY WEST,ALTA,52.0333333333333,-112.966666666667,792.5
1079,BIG WHITE,BC,49.7333333333333,-118.933333333333,1841
1080,BIG WHITE MTN LODGE,BC,49.7333333333333,-118.933333333333,1844
3211,BIGGAR,SASK,52.0666666666667,-107.983333333333,670.6
2365,BIGHORN DAM,ALTA,52.3166666666667,-116.333333333333,1341
1100,BILLINGS,BC,49.0168333333333,-118.228333333333,510
4611,BINBROOK,ONT,43.1166666666667,-79.8333333333333,205.7
2049,BINDLOSS,ALTA,50.6833333333333,-110.166666666667,640.1
2050,BINDLOSS EAST,ALTA,50.8908361111111,-110.198625,636
2051,BINDLOSS EXP ST,ALTA,50.8666666666667,-110.183333333333,641.6
4417,BINGHAM CHUTE,ONT,46.0833333333333,-79.4,242.3
3467,BINSCARTH,MAN,50.5833333333333,-101.266666666667,525.8
3276,BIRCH HILLS,SASK,53,-105.483333333333,459.9
1820,BIRCH LAKE,ALTA,53.3833333333333,-111.766666666667,689
2481,BIRCH MOUNTAIN LO,ALTA,57.7166666666667,-111.85,853.4
2662,BIRCH MOUNTAIN TOWER,ALTA,58.1,-112.15,731
3777,BIRCH RIVER,MAN,52.5166666666667,-100.916666666667,267.9
1101,BIRCHBANK,BC,49.1666666666667,-117.716666666667,469.4
5318,BIRCHTON,QUE,45.3666666666667,-71.6666666666667,0
6304,BIRCHTOWN,NS,45.45,-61.4833333333333,68.6
3869,BIRD,MAN,56.5,-94.2,86.9
5774,BIRD ROCKS,QUE,47.85,-61.1333333333333,32.3
3576,BIRDS HILL NURSERY,MAN,49.9833333333333,-96.8333333333333,256
3577,BIRDS HILL PINE RIDGE,MAN,49.9833333333333,-96.9333333333333,238.4
3468,BIRDTAIL,MAN,50.8166666666667,-100.916666666667,577.6
936,BIRKENHEAD LAKE,BC,50.5666666666667,-122.65,715.1
3778,BIRNIE,MAN,50.5,-99.4833333333333,432.8
3072,BIRSAY,SASK,51.15,-106.883333333333,589.8
3073,BIRSAY,SASK,51.0833333333333,-106.966666666667,594.4
3469,BIRTLE,MAN,50.4333333333333,-101.05,522
4107,BISCOTASING,ONT,47.3,-82.1,406.9
3074,BISHOPRIC,SASK,50,-105.783333333333,679.7
6571,BISHOPS FALLS,NFLD,49.0166666666667,-55.5,21.3
6572,BISHOPS FALLS,NFLD,49.0166666666667,-55.4666666666667,9.1
6573,BISHOPS FALLS PEAT MINE,NFLD,49.05,-55.4166666666667,15.2
5319,BISHOPTON,QUE,45.5833333333333,-71.5666666666667,213.4
2052,BISMARK,ALTA,52.7333333333333,-113.866666666667,0
2663,BISON LO,ALTA,57.1166666666667,-116.5,731.5
3723,BISSETT,MAN,51.0333333333333,-95.7,259
3722,BISSETT,MAN,50.9666666666667,-95.6333333333333,0
27827,BISTCHO LAKE (F5),ALTA,59.9166666666667,-118.95,576
3353,BITTERN CREEK,SASK,53.9833333333333,-105.866666666667,518.2
1821,BITTERN LAKE,ALTA,53.0666666666667,-113,745.2
2482,BITUMONT LO,ALTA,57.3666666666667,-111.533333333333,348.7
139,BLACK CREEK,BC,49.8461111111111,-125.132777777778,46
45507,BLACK CREEK SE,BC,49.8033333333333,-125.094744444444,87.8
47747,BLACK DIAMOND,ALTA,50.7066688888889,-114.151667222222,1156
6574,BLACK DUCK,NFLD,48.5666666666667,-58.3666666666667,35.4
5320,BLACK LAKE,QUE,46.05,-71.3666666666667,262.7
6305,BLACK RIVER,NS,46.1333333333333,-61.3333333333333,106.7
3990,BLACK STURGEON LAKE,ONT,49.3166666666667,-88.85,253
3991,BLACK STURGEON LAKE 2,ONT,49.3,-88.8,253
3992,BLACK STURGEON RIVER,ONT,49.0666666666667,-88.6166666666667,219.5
7351,BLACK TOP RIDGE (AUT),NU,80,-85.4166666666667,619
45787,BLACKCOMB BASE SLIDING CENTER,BC,50.1024722222222,-122.936361111111,937
47807,BLACKCOMB BASE SLIDING CENTRE BOTTOM,BC,50.1058352777778,-122.9422225,816.6
700,BLACKCOMB MOUNTAIN 1540,BC,50.1,-122.916666666667,1540.2
715,BLACKCOMB MOUNTAIN 1860,BC,50.1,-122.916666666667,1860.9
498,BLACKDOME MOUNTAIN,BC,51.3166666666667,-122.5,1898
2176,BLACKIE,ALTA,50.7333333333333,-113.6,1066.8
2177,BLACKIE 2W,ALTA,50.6,-113.683333333333,1024.1
50917,BLACKIE AGCM,ALTA,50.5455788888889,-113.640277777778,1019
2178,BLACKIE NORTH,ALTA,50.7666666666667,-113.666666666667,1066.8
2179,BLACKIE NW,ALTA,50.7666666666667,-113.766666666667,1066.8
31048,BLACKSTOCK,ONT,44.1,-78.8333333333333,291
1822,BLACKSTONE LO,ALTA,52.7833333333333,-116.35,1569.7
3277,BLACKSTRAP,SASK,51.7833333333333,-106.4,536.4
1396,BLACKWATER CREEK,BC,55.5333333333333,-123.65,732
3278,BLAINE LAKE,SASK,52.7666666666667,-106.9,518.2
2367,BLAIRMORE HQTS RS,ALTA,49.6166666666667,-114.433333333333,1310.6
988,BLAKEBURN,BC,49.4833333333333,-120.733333333333,1485
5668,BLANC SABLON,QUE,51.4166666666667,-57.2166666666667,19.2
5667,BLANC SABLON,QUE,51.4166666666667,-57.2,7.6
5669,BLANC-SABLON A,QUE,51.45,-57.1833333333333,37.2
30167,BLANC-SABLON A (AUT),QUE,51.45,-57.1833333333333,36.9
1519,BLANCHARD RIVER,YT,60,-136.766666666667,836
5581,BLANCHE,QUE,45.75,-75.3333333333333,213
4544,BLENHEIM,ONT,42.6666666666667,-82.0166666666667,205.1
44806,BLENHEIM 1,ONT,42.30751,-82.0316683333333,200
44806,BLENHEIM 1,ONT,42.30751,-82.0316683333333,200
140,BLIND CHANNEL,BC,50.4166666666667,-125.5,3
4064,BLIND RIVER,ONT,46.2,-83,183.2
4065,BLIND RIVER HYDRO CENTRE,ONT,46.2,-83.0166666666667,189
2053,BLINDMAN,ALTA,52.7666666666667,-114.483333333333,960.1
6121,BLISSVILLE,NB,45.6166666666667,-66.55,22.3
2054,BLOOD INDIAN CREEK,ALTA,50.9166666666667,-111.066666666667,640.1
42703,BLOOD TRIBE AGDM,ALTA,49.5666666666667,-113.05,980
4862,BLOOMFIELD,ONT,43.9833333333333,-77.2166666666667,91.4
4863,BLOOMFIELD WEST,ONT,43.9833333333333,-77.25,90
5670,BLOUGH LAKE,QUE,51.75,-68.3333333333333,0
4848,BLUE ACTON,ONT,43.6,-80.05,365.8
4727,BLUE CORWHIN,ONT,43.5333333333333,-80.1166666666667,350.5
6306,BLUE MOUNTAIN,NS,45.4833333333333,-62.4166666666667,213.4
6122,BLUE MOUNTAIN TOWER,NB,47.8,-66.3,160
1237,BLUE RIVER A,BC,52.1290277777778,-119.289527777778,682.8
8214,BLUE RIVER CS,BC,52.1290277777778,-119.289527777778,682.8
1238,BLUE RIVER NORTH,BC,52.15,-119.283333333333,688.8
4725,BLUE ROCKWOOD,ONT,43.5833333333333,-80.1166666666667,350.5
4726,BLUE SCOUT,ONT,43.6166666666667,-80.0833333333333,342.9
4733,BLUE SPRINGS CREEK,ONT,43.6333333333333,-80.1166666666667,373.4
6861,BLUEBERRY CREEK,ALTA,55.9166666666667,-119.000555555556,621.8
2664,BLUEBERRY MTN CDA EPF,ALTA,55.9333333333333,-119.133333333333,731.5
2368,BLUEHILL LO,ALTA,51.7,-115.216666666667,1950.7
2055,BLUFFTON,ALTA,52.75,-114.283333333333,908.3
3075,BLUMENHOF,SASK,50.0333333333333,-107.766666666667,899.2
4545,BLYTH,ONT,43.71834,-81.3836333333333,350.5
383,BOAT BLUFF,BC,52.6430694444444,-128.523908333333,10.7
6575,BOAT HARBOUR,NFLD,47.4305555555556,-54.8427777777778,15.2
2369,BOB CREEK,ALTA,49.8833333333333,-114.25,1371.6
1483,BOB QUINN,BC,56.9833333333333,-130.25,579.1
1484,BOB QUINN AGS,BC,56.9667777777778,-130.25,610
6947,BOB QUINN LAKE 2,BC,56.9666666666667,-130.25,609.6
1350,BOBBIE BURNS,BC,50.9494444444444,-116.929444444444,1370
5156,BOBCAYGEON,ONT,44.5166666666667,-78.6166666666667,260
5157,BOBCAYGEON,ONT,44.5833333333333,-78.5166666666667,248.1
32149,BODO AGDM,ALTA,52.1241680555556,-110.101391388889,687
3470,BOGGY CREEK,MAN,51.5386111111111,-101.391111111111,609
4418,BOGNOR,ONT,44.6666666666667,-80.8333333333333,249.9
3578,BOISSEVAIN,MAN,49.2333333333333,-100.05,510.5
3579,BOISSEVAIN 2,MAN,49.2166666666667,-100.083333333333,525.8
27083,BOLTON NORTH,ONT,43.9166666666667,-79.75,261
4864,BOLTON SPS,ONT,43.8833333333333,-79.7333333333333,213.1
6123,BON ACCORD,NB,46.6508472222222,-67.5844527777778,450.3
5321,BON CONSEIL EXP ST,QUE,46,-72.4,76.2
1520,BONANZA CREEK,YT,63.9666666666667,-139.35,396.2
5775,BONAVENTURE,QUE,48.05,-65.4833333333333,19.5
45047,BONAVISTA,NFLD,48.6672222222222,-53.1141666666667,25.6
6576,BONAVISTA,NFLD,48.6672222222222,-53.1141666666667,25.6
4186,BONFIELD,ONT,46.2166666666667,-79.1333333333333,265
384,BONILLA ISLAND,BC,53.49275,-130.637694444444,16.2
8265,BONILLA ISLAND (AUT),BC,53.4928497222222,-130.639,12.5
5893,BONNARD,QUE,50.7333333333333,-71.05,506
10874,BONNARD 1,QUE,50.7288888888889,-71.0130555555556,498
4140,BONNER LAKE,ONT,49.3833333333333,-82.1236111111111,245
2333,BONNIE VIEW,ALTA,49.3166666666667,-112.633333333333,1250
1102,BONNINGTON FALLS,BC,49.45,-117.483333333333,457.2
2831,BONNYVILLE EXP ST,ALTA,54.2833333333333,-110.633333333333,548.6
5322,BONSECOURS,QUE,45.4,-72.2666666666667,297.2
27197,BORDEN,ONT,44.2655555555556,-79.9194444444445,222.5
6523,BORDEN,PEI,46.25,-63.7,7.6
29412,BORDEN 18N,SASK,52.55,-107.233333333333,541
4419,BORDEN A,ONT,44.2666666666667,-79.9333333333333,227.4
29516,BORDEN AWOS,ONT,44.2722222222222,-79.9116666666667,222.5
4399,BORDEN STP,ONT,44.3,-79.9,201.2
8668,BORDER (AUT),QUE,55.3333333333333,-63.2166666666667,479
6088,BORDER A,QUE,55.3333333333333,-63.2166666666667,464.8
569,BOSS MOUNTAIN,BC,52.1,-120.883333333333,1531.6
937,BOSTON BAR,BC,49.8666666666667,-121.45,163.1
941,BOSTON BAR,BC,49.8666666666667,-121.433333333333,199.9
940,BOSTON BAR ALPINE,BC,49.9166666666667,-121.45,213
1103,BOSWELL,BC,49.4833333333333,-116.75,573
6577,BOTWOOD,NFLD,49.15,-55.35,15.2
1521,BOUNDARY,YT,64.2333333333333,-140.35,1036.3
1390,BOUNDARY LAKE,BC,56.3333333333333,-120.1,711.1
4234,BOURGET,ONT,45.4666666666667,-75.1666666666667,65.5
27037,BOVINE CREEK AFS,ALTA,56.1077777777778,-112.549444444444,518
10915,BOW ISLAND,ALTA,49.7341861111111,-111.450277777778,816.6
8755,BOW ISLAND,ALTA,49.8666666666667,-111.383333333333,798.9
2189,BOW ISLAND EXP ST,ALTA,49.8666666666667,-111.366666666667,798.6
42723,BOW ISLAND IRRIGATION AGDM,ALTA,49.8666666666667,-111.383333333333,799
2190,BOW ISLAND RIVERS DEV,ALTA,49.8666666666667,-111.366666666667,798.9
27653,BOW SUMMIT (PC),ALTA,51.7166666666667,-116.483333333333,2011.7
10222,BOW VALLEY,ALTA,51.0833333333333,-115.066666666667,1297.5
2370,BOW VALLEY PROV PARK,ALTA,51.0833333333333,-115.066666666667,1318
2056,BOWDEN,ALTA,51.9833333333333,-114.016666666667,914.7
297,BOWEN ISL ARBUTUS BAY,BC,49.3333333333333,-123.383333333333,21
296,BOWEN ISLAND,BC,49.35,-123.416666666667,22.9
295,BOWEN ISLAND BOWEN BAY,BC,49.3648444444444,-123.420287777778,36.6
298,BOWEN ISLAND CATES BAY,BC,49.4119444444444,-123.315,27
6815,BOWEN ISLAND JOSEPHINE RIDGE,BC,49.3666666666667,-123.383333333333,160
6814,BOWEN ISLAND KILLARNEY LAKE,BC,49.4,-123.366666666667,50
290,BOWEN ISLAND MILLERS LDG,BC,49.3919444444444,-123.328055555556,91.1
6816,BOWEN ISLAND SUNSET PARK,BC,49.3599077777778,-123.401969444444,165.3
4865,BOWMANVILLE,ONT,43.9166666666667,-78.65,121.9
4866,BOWMANVILLE MOSTERT,ONT,43.9166666666667,-78.6666666666667,99.1
2191,BOWNESS,ALTA,51.1166666666667,-114.216666666667,1036.3
564,BOWRON LAKE,BC,53.2833333333333,-121.45,944.9
141,BOWSER,BC,49.45,-124.666666666667,3
2483,BOYLE,ALTA,54.5666666666667,-112.866666666667,670.6
3354,BRABANT LAKE,SASK,56.1166666666667,-103.75,381
3354,BRABANT LAKE,SASK,56.1166666666667,-103.75,381
4420,BRACEBRIDGE,ONT,45.05,-79.3166666666667,250
4421,BRACEBRIDGE ONT HYDRO,ONT,45.0333333333333,-79.3,266.7
3165,BRACKEN CDA EPF,SASK,49.2,-108.1,888.2
3166,BRACKEN NORTH,SASK,49.3833333333333,-108.116666666667,914.4
6524,BRACKLEY BEACH,PEI,46.4166666666667,-63.3333333333333,48.5
4867,BRADFORD,ONT,44.1,-79.5,220.7
4868,BRADFORD 2,ONT,44.1166666666667,-79.5333333333333,221
4422,BRADFORD BROWN,ONT,44.15,-79.5666666666667,292.6
4869,BRADFORD HIGH SCHOOL,ONT,44.1166666666667,-79.5,251.5
4870,BRADFORD MUCK RESEARCH,ONT,44.0333333333333,-79.6,221
4871,BRADFORD OAC,ONT,44.1,-79.6,243.8
4872,BRADFORD ODA,ONT,44.1166666666667,-79.55,221
4873,BRADFORD SPRINGDALE,ONT,44.0333333333333,-79.6166666666667,221
1522,BRAEBURN,YT,61.4666666666667,-135.783333333333,716.3
6307,BRAESHORE,NS,45.7,-62.65,7.6
2192,BRAGG CREEK WEST,ALTA,50.9666666666667,-114.616666666667,1371.9
3724,BRAINTREE 1,MAN,49.6333333333333,-95.5666666666667,315.5
3725,BRAINTREE 2,MAN,49.6,-95.6166666666667,315.5
508,BRALORNE,BC,50.7833333333333,-122.816666666667,1015
4874,BRAMALEA,ONT,43.6833333333333,-79.7166666666667,205.7
4875,BRAMPTON,ONT,43.7,-79.7666666666667,221
6953,BRAMPTON AIRPORT,ONT,43.7666666666667,-79.8833333333333,274.3
4876,BRAMPTON MOE,ONT,43.6666666666667,-79.7,182.9
6578,BRANCH,NFLD,46.8830555555556,-53.9680555555556,11.8
3474,BRANDON #1 WINTER BAY,MAN,49.8333333333333,-99.9833333333333,396
50821,BRANDON A,MAN,49.91,-99.9522222222222,409.3
3471,BRANDON A,MAN,49.91,-99.9519444444445,409.4
3472,BRANDON CDA,MAN,49.8666666666667,-99.9833333333333,362.7
49909,BRANDON RCS,MAN,49.9,-99.95,409.4
3473,BRANDON SOUTH,MAN,49.8166666666667,-99.95,396.2
1523,BRANDT PEAK,YT,63.05,-140.933333333333,1127.8
2193,BRANT,ALTA,50.45,-113.5,990.6
4734,BRANTFORD,ONT,43.1333333333333,-80.2666666666667,205.7
4735,BRANTFORD BRANT PARK,ONT,43.15,-80.3,213.4
4737,BRANTFORD MOE,ONT,43.1333333333333,-80.2333333333333,196
4736,BRANTFORD MORELL,ONT,43.15,-80.2833333333333,198.1
7568,BRANTRIDGE DOMINICA,OTHR,15.3833333333333,-61.35,442
44543,BRATT'S LAKE CLIMATE,SASK,50.2005558333333,-104.71,580
1734,BRAY ISLAND,NU,69.2238888888889,-77.2469444444444,17.7
1823,BRAZEAU LO,ALTA,53.0166666666667,-115.416666666667,1088.4
5892,BRE #3 RIV-AUX-RATS,QUE,49.2166666666667,-72.25,335.3
4423,BRECHIN BEACH,ONT,44.5333333333333,-79.2,219.5
1824,BREMNER,ALTA,53.5833333333333,-113.283333333333,678.2
20,BRENTWOOD BAY 2,BC,48.6,-123.466666666667,38
21,BRENTWOOD CLARKE ROAD,BC,48.5666666666667,-123.45,30.5
22,BRENTWOOD W SAANICH RD,BC,48.5666666666667,-123.433333333333,91.4
1825,BRETON,ALTA,53.1666666666667,-114.483333333333,843
10928,BRETON PLOTS,ALTA,53.0894444444444,-114.440833333333,851.5
1826,BRETON TOWN,ALTA,53.1166666666667,-114.466666666667,837.3
1735,BREVOORT ISLAND,NU,63.3397222222222,-64.1458333333333,376
1827,BRIARFIELD,ALTA,53.7333333333333,-111.05,633
1081,BRIDESVILLE,BC,49.05,-119.166666666667,1187
1239,BRIDGE LAKE,BC,51.4666666666667,-120.733333333333,1157
1240,BRIDGE LAKE 2,BC,51.5038333333333,-120.7935,1155.2
571,BRIDGE RIVER,BC,50.7333333333333,-122.216666666667,253
570,BRIDGE RIVER,BC,50.85,-122.433333333333,609.6
27930,BRIDGETOWN,NS,44.8333333333333,-65.3,8
6308,BRIDGEWATER,NS,44.4,-64.55,27.4
10859,BRIER ISLAND,NS,44.2858333333333,-66.3466666666667,15.8
2852,BRIERCREST,SASK,50.15,-105.266666666667,594.1
2853,BRIERCREST 2,SASK,50.0833333333333,-105.35,629.1
5323,BRIGHAM,QUE,45.25,-72.85,91.4
4878,BRIGHTON,ONT,44.0666666666667,-77.7333333333333,92.7
1828,BRIGHTVIEW,ALTA,52.9833333333333,-113.716666666667,815.3
2484,BRIGHTWOOD,ALTA,53.5,-114.933333333333,792.5
1352,BRISCO,BC,50.8205555555556,-116.258055555556,823
299,BRITANNIA BEACH FURRY CR,BC,49.5838888888889,-123.223611111111,9
5324,BRITANNIA MILLS,QUE,45.6333333333333,-72.8166666666667,68.6
7704,BRITT (AUT),ONT,45.8,-80.5333333333333,190
3726,BROAD VALLEY,MAN,50.9833333333333,-97.4666666666667,259.1
2855,BROADVIEW,SASK,50.3680555555556,-102.570833333333,599.8
26851,BROADVIEW,SASK,50.3833333333333,-102.683333333333,600.1
2854,BROADVIEW,SASK,50.3833333333333,-102.55,597.4
2856,BROADVIEW A,SASK,50.25,-102.533333333333,619.7
3870,BROCHET A,MAN,57.8862222222222,-101.681444444444,346.3
31407,BROCKET AGDM,ALTA,49.6166666666667,-113.816666666667,1072.7
4235,BROCKVILLE,ONT,44.6,-75.7,91.4
47567,BROCKVILLE CLIMATE,ONT,44.6352777777778,-75.7483333333333,120.4
4236,BROCKVILLE PCC,ONT,44.6,-75.6666666666667,96
6124,BROCKWAY,NB,45.5,-67.1166666666667,83.8
4879,BRODDYTOWN,ONT,43.6166666666667,-79.6,144.8
3727,BROKENHEAD,MAN,50.2666666666667,-96.5166666666667,228.6
5325,BROME,QUE,45.1833333333333,-72.5666666666667,205.7
5326,BROMONT,QUE,45.3,-72.6333333333333,175.3
5327,BROMPTONVILLE,QUE,45.4833333333333,-71.95,130
1488,BRONSON CREEK,BC,56.6666666666667,-131.1,107
3476,BROOKDALE,MAN,50.0166666666667,-99.5666666666667,392.4
989,BROOKMERE,BC,49.8166666666667,-120.866666666667,972
2194,BROOKS,ALTA,50.5833333333333,-111.9,755.3
2180,BROOKS,ALTA,50.5552972222222,-111.848897222222,747
2195,BROOKS 1,ALTA,50.5666666666667,-111.9,758
2196,BROOKS AHRC,ALTA,50.55,-111.85,758
2197,BROOKS NORTH,ALTA,50.6166666666667,-111.883333333333,759
2057,BROOKS ONE TREE,ALTA,50.6333333333333,-111.783333333333,737
4880,BROUGHAM,ONT,43.9166666666667,-79.1166666666667,198.1
5328,BROUGHTON STATION,QUE,46.2,-71.1166666666667,373.4
1737,BROUGHTON VILLAGE,NU,67.55,-64.0333333333333,9.1
6023,BROUILLAN,QUE,49.8,-78.95,259.1
10971,BROWN RIVER,NU,66.0333333333333,-91.8333333333333,150
1829,BROWNFIELD,ALTA,52.3191733333333,-111.469465,755.3
1829,BROWNFIELD,ALTA,52.3191733333333,-111.469465,755.3
27617,BROWNSDALE,NFLD,48.0336111111111,-53.1188888888889,10
47067,BROWNVALE AGCM,ALTA,56.1177777777778,-117.886391111111,748
4068,BRUCE MINES,ONT,46.3,-83.9166666666667,181.4
4067,BRUCE MINES RADIGAN,ONT,46.3,-83.75,178
4546,BRUCE ONTARIO HYDRO,ONT,44.3333333333333,-81.5833333333333,179.8
4547,BRUCEFIELD,ONT,43.55,-81.55,259.1
458,BRUCEJACK LAKE,BC,56.4666666666667,-130.166666666667,1372
4843,BRUCES MILL,ONT,44,-79.3333333333333,358.1
1830,BRUDERHEIM,ALTA,53.7833333333333,-112.933333333333,640.1
2485,BRULE BLACK CAT,ALTA,53.35,-117.866666666667,1036.3
6125,BRUNSWICK MINES,NB,47.4833333333333,-65.8833333333333,213.4
4548,BRUSSELS,ONT,43.7333333333333,-81.2333333333333,339.9
1524,BRYN MYRDDIN FARM,YT,60.8666666666667,-135.383333333333,686
300,BUCCANEER BAY,BC,49.4833333333333,-123.966666666667,1.5
2857,BUCHANAN,SASK,51.7166666666667,-102.733333333333,503.2
2858,BUCHANAN,SASK,51.7166666666667,-102.833333333333,502.9
6580,BUCHANS,NFLD,48.8166666666667,-56.85,219.5
6579,BUCHANS,NFLD,48.8166666666667,-56.8666666666667,269.7
6581,BUCHANS A,NFLD,48.85,-56.8333333333333,276.1
6582,BUCHANS JUNCTION,NFLD,48.85,-56.4666666666667,160.8
1831,BUCK MOUNTAIN,ALTA,53.0166666666667,-114.7,1060.7
1806,BUCK MOUNTAIN,ALTA,53.0333333333333,-114.7,914.4
5582,BUCKINGHAM,QUE,45.5833333333333,-75.4166666666667,137.2
1450,BUCKINGHORSE RIVER,BC,57.3833333333333,-122.866666666667,1097.3
2486,BUCKTON LO,ALTA,57.8666666666667,-112.1,792.5
6126,BUCTOUCHE,NB,46.5166666666667,-64.7166666666667,10.7
6127,BUCTOUCHE CDA,NB,46.4333333333333,-64.7666666666667,36
6918,BUCTOUCHE CDA CS,NB,46.4302794444444,-64.7680580555556,35.9
2058,BUFFALO,ALTA,50.9333333333333,-110.933333333333,624.8
50920,BUFFALO AGCM,ALTA,50.7980997222222,-110.68558,723
2665,BUFFALO HEAD PRAIRIE,ALTA,58.05,-116.266666666667,335.3
1243,BUFFALO LAKE,BC,51.7075,-121.082833333333,1003
2666,BUFFALO LO,ALTA,57.95,-116.216666666667,792.5
3355,BUFFALO NARROWS,SASK,55.8666666666667,-108.483333333333,421.2
3356,BUFFALO NARROWS,SASK,55.85,-108.466666666667,422.5
7534,BUFFALO NARROWS (AUT),SASK,55.8405577777778,-108.420558055556,440.1
3357,BUFFALO NARROWS A,SASK,55.8333333333333,-108.433333333333,433.7
50823,BUFFALO NARROWS A,SASK,55.8419444444444,-108.4175,433.7
2859,BUFFALO POUND LAKE,SASK,50.55,-105.383333333333,588
1353,BUGABOO CREEK LODGE,BC,50.7546944444444,-116.706638888889,1529
26829,BULL ARM,NFLD,47.8166666666667,-53.9,119
234,BULL HARBOUR,BC,50.9166666666667,-127.95,13.7
50921,BULL SPRINGS AGCM,ALTA,50.33947,-110.484099722222,780
45747,BULLHORN COULEE RESERVOIR,ALTA,49.2952777777778,-113.358611111111,1115
45749,BULLHORN HEADWATERS,ALTA,49.1525,-113.550555555556,1326
1397,BULLMOOSE,BC,55.2333333333333,-121.383333333333,1102
2059,BULLPOUND CREEK,ALTA,51.2833333333333,-111.883333333333,793
5329,BULWER,QUE,45.35,-71.7,288
720,BUNTZEN BAY,BC,49.3847222222222,-122.862777777778,10
721,BUNTZEN LAKE,BC,49.3833333333333,-122.866666666667,10
3993,BURCHELL LAKE,ONT,48.6166666666667,-90.5833333333333,464.8
4738,BURFORD,ONT,43.1,-80.4333333333333,259.1
6583,BURGEO,NFLD,47.6166666666667,-57.6166666666667,10.6
6584,BURGEO 2,NFLD,47.6166666666667,-57.6166666666667,10.6
45287,BURGEO NL,NFLD,47.6166666666667,-57.6166666666667,10.6
6585,BURIN,NFLD,47,-55.1666666666667,15.2
45349,BURK'S FALLS,ONT,45.655015,-79.4,335
4424,BURK'S FALLS 2,ONT,45.5833333333333,-79.6,310
4881,BURKETON MCLAUGHLIN,ONT,44.0333333333333,-78.8,312.4
4425,BURKS FALLS,ONT,45.6,-79.5666666666667,320
5158,BURLEIGH FALLS,ONT,44.5666666666667,-78.2166666666667,243.8
4882,BURLINGTON,ONT,43.35,-79.8,105.2
4883,BURLINGTON DRURY LANE,ONT,43.3333333333333,-79.8,91.4
4884,BURLINGTON ELIZABETH GDN,ONT,43.3666666666667,-79.7333333333333,83.8
4885,BURLINGTON FIRE HQ'S,ONT,43.35,-79.8166666666667,114.3
7868,BURLINGTON PIERS (AUT),ONT,43.3,-79.8,77.4
4886,BURLINGTON SKYWAY,ONT,43.3166666666667,-79.8,76.2
4887,BURLINGTON TS,ONT,43.3333333333333,-79.8333333333333,99.1
722,BURNABY BC INST TECHNOL,BC,49.25,-123,30.5
723,BURNABY BRANTFORD,BC,49.2333333333333,-122.966666666667,125
724,BURNABY CAPITOL HILL,BC,49.2861111111111,-122.986666666667,182.9
718,BURNABY CARIBOO DAM,BC,49.25,-122.916666666667,12.8
725,BURNABY CURTIS,BC,49.2833333333333,-122.966666666667,99.1
726,BURNABY EAST,BC,49.2333333333333,-122.933333333333,114.3
719,BURNABY EAST,BC,49.2166666666667,-122.75,120.1
727,BURNABY EDMONDS,BC,49.2166666666667,-122.95,99.1
728,BURNABY LAKE,BC,49.2666666666667,-122.95,65.5
729,BURNABY LAKE WEST,BC,49.2666666666667,-122.983333333333,33.5
671,BURNABY METROTOWN,BC,49.2166666666667,-123,125
730,BURNABY MTN TERMINAL,BC,49.2666666666667,-122.933333333333,137.2
731,BURNABY SIMON FRASER U,BC,49.2783888888889,-122.918044444444,365.8
732,BURNABY SUNCREST,BC,49.2166666666667,-123.016666666667,54.9
733,BURNABY VANCOUVER HTS,BC,49.3,-123.016666666667,82.3
4888,BURNHAMTHORPE,ONT,43.6166666666667,-79.6,144.8
8924,BURNS CREEK,ALTA,50.6166666666667,-114.883333333333,1875
572,BURNS LAKE,BC,54.2333333333333,-125.766666666667,704.1
6825,BURNS LAKE 10 SOUTH,BC,54.15,-125.733333333333,783
574,BURNS LAKE DECKER LAKE,BC,54.3831666666667,-125.958666666667,713.2
573,BURNS LAKE DECKER LAKE,BC,54.25,-125.8,707.1
2060,BURNSTICK LO,ALTA,51.9666666666667,-114.783333333333,1219.2
6129,BURNT CHURCH,NB,47.2333333333333,-65.1333333333333,15.2
6128,BURNT CHURCH,NB,47.2,-65.1333333333333,7.6
6586,BURNT POND,NFLD,48.1666666666667,-57.3333333333333,298.7
6958,BURNT RIVER-CLARK,ONT,44.6333333333333,-78.7,259
2371,BURNT TIMBER LO,ALTA,51.5,-115.383333333333,2316.5
29774,BURNTWOOD RIVER,MAN,55.5,-99.2166666666667,215
734,BURQUITLAM VANCOUVER GOLF COURSE,BC,49.2516666666667,-122.876944444444,122
5330,BURROUGHS FALLS,QUE,45.15,-72,210.3
10192,BURWASH,YT,61.3666666666667,-139.033333333333,806.8
49650,BURWASH A,YT,61.3705555555556,-139.04,805.3
49650,BURWASH A,YT,61.3705555555556,-139.04,805.3
50270,BURWASH A,YT,61.3705555555556,-139.04,806.2
1525,BURWASH A,YT,61.3666666666667,-139.05,806.2
51718,BURWASH AIRPORT AUTO BC,YT,61.3666666666667,-139.016666666667,807
31087,BURWASH AWOS,YT,61.3700083333333,-139.032233888889,805.3
5331,BURY,QUE,45.4833333333333,-71.5166666666667,289.6
5332,BURY,QUE,45.5166666666667,-71.4833333333333,378
5333,BURY (COLLEGE D'ALZON),QUE,45.4833333333333,-71.5,289.6
6854,BUSBY,ALTA,53.9968333333333,-113.888777777778,701
47068,BUSBY AGCM,ALTA,53.9308347222222,-113.921666944444,714
385,BUTEDALE,BC,53.15,-128.7,15.2
6555,BUTLERVILLE,NFLD,47.5791666666667,-53.3161111111111,16
3212,BUTTE ST PIERRE,SASK,53.45,-109.2,571.5
1785,BYRON BAY A,NU,68.75,-109.066666666667,92.1
49948,CABIN LAKE AGCM,ALTA,51.0236125,-111.221391388889,734
3076,CABRI,SASK,50.5166666666667,-108.45,678.2
4185,CACHE BAY,ONT,46.3833333333333,-80.0166666666667,198.1
1244,CACHE CREEK 16 MILE,BC,50.9150055555556,-121.415286111111,515.1
6024,CACHE LAKE,QUE,49.8333333333333,-74.4166666666667,381.9
5979,CADILLAC,QUE,48.2166666666667,-78.3833333333333,320.6
5980,CADILLAC,QUE,48.2,-78.3333333333333,324.6
3077,CADILLAC,SASK,49.7166666666667,-107.75,784.9
1631,CADILLAC MINE,NWT,61.5333333333333,-124.75,868.1
1832,CADOGAN,ALTA,52.2666666666667,-110.583333333333,670.6
1833,CADOGAN,ALTA,52.25,-110.533333333333,665.3
46470,CADOGAN AGCM,ALTA,52.3341686111111,-110.510000555556,690
2667,CADOTTE LO,ALTA,56.3,-116.433333333333,731.5
4549,CAIRO,ONT,42.7,-81.9,198.1
4237,CALABOGIE,ONT,45.25,-76.7333333333333,155.4
2201,CALDWELL,ALTA,49.1666666666667,-113.633333333333,1286
4889,CALEDON,ONT,43.8666666666667,-79.9333333333333,384
27485,CALEDON NORTH,ONT,43.9333333333333,-79.95,406
11008,CALEDON VILLAGE,ONT,43.85,-80,423
4612,CALEDONIA,ONT,43.0833333333333,-79.95,205.7
2061,CALENDULA SIBBALD,ALTA,51.4833333333333,-110.05,718.7
2202,CALGARY BEARSPAW,ALTA,51.1,-114.333333333333,1188.7
2203,CALGARY BELLEVIEW,ALTA,51.1,-114.15,1112.5
2168,CALGARY ELBOW VIEW,ALTA,51.0166666666667,-114.2,1127.8
2204,CALGARY GLENMORE DAM,ALTA,51.0166666666667,-114.1,1066.8
2205,CALGARY INT'L A,ALTA,51.1138888888889,-114.020277777778,1084.1
27211,CALGARY INT'L CS,ALTA,51.1086333333333,-114.014444444444,1081
50430,CALGARY INTL A,ALTA,51.1138888888889,-114.02,1084.1
45867,CALGARY MARLBOROUGH,ALTA,51.0625,-113.9875,1088
45907,CALGARY MIDNAPORE,ALTA,50.9066666666667,-114.06,1045
45887,CALGARY NOSE HILL,ALTA,51.0916666666667,-114.095,1138
2206,CALGARY POPLAR GARDENS,ALTA,51.0333333333333,-114.183333333333,1207.2
45847,CALGARY ROSSCARROCK,ALTA,51.0380555555556,-114.151666666667,1148
2207,CALGARY SIMONS VALLEY,ALTA,51.2166666666667,-114.2,1112.5
2208,CALGARY SPRINGBANK,ALTA,51.0666666666667,-114.283333333333,1188.7
2209,CALGARY SPRINGBANK,ALTA,51.1,-114.433333333333,1249.7
50623,CALGARY SPRINGBANK A,ALTA,51.1052777777778,-114.371388888889,1200.9
43500,CALLAGHAN VALLEY,BC,50.1439052777778,-123.110558333333,884
45487,CALLAGHAN VALLEY (SKI JUMP TOP),BC,50.1375,-123.110016666667,936
47835,CALLAGHAN VALLEY BIATHLON HIGH LEVEL,BC,50.0088888888889,-123.118613611111,882.7
47834,CALLAGHAN VALLEY CROSS COUNTRY HIGH LEVEL,BC,50.14278,-123.106389444444,922
47833,CALLAGHAN VALLEY LOW LEVEL,BC,50.1397227777778,-123.116945277778,838
45707,CALLAGHAN VALLEY(BIATHALON),BC,50.1472227777778,-123.115556111111,870
46967,CALLAGHAN VALLEY(SKI JUMP BOTTOM),BC,50.1368333333333,-123.113138888889,860
2489,CALLING LAKE RS,ALTA,55.25,-113.183333333333,598
1835,CALMAR,ALTA,53.2897241666667,-113.863057777778,720
1836,CALMAR TOWNSITE,ALTA,53.2333333333333,-113.8,670.6
1837,CALMAR WEST,ALTA,53.2833333333333,-113.866666666667,725
10847,CAM FOUR,NU,68.4369444444445,-89.7258333333333,328
6910,CAMBORNE,ONT,44.05,-78.2166666666667,175.3
2668,CAMBRIA LO,ALTA,59.25,-110.8,327
1786,CAMBRIDGE BAY A,NU,69.1080555555556,-105.138333333333,31.1
32233,CAMBRIDGE BAY GSN,NU,69.1080555555556,-105.138333333333,18.7
4739,CAMBRIDGE GALT MOE,ONT,43.3333333333333,-80.3166666666667,268.2
6309,CAMBRIDGE STATION,NS,45.0666666666667,-64.6166666666667,30.5
4740,CAMBRIDGE-STEWART,ONT,43.35,-80.3,289
6310,CAMDEN IHD,NS,45.3166666666667,-63.2,182.9
3279,CAMEO,SASK,53.2833333333333,-106.55,487.7
3477,CAMERON,MAN,49.4666666666667,-100.466666666667,442
2210,CAMERON COULEE,ALTA,50.65,-114.033333333333,1122
2373,CAMERON FALLS,ALTA,49.05,-113.916666666667,1310.6
3994,CAMERON FALLS,ONT,49.15,-88.35,228.6
27674,CAMERON FALLS (AUT),ONT,49.1538888888889,-88.3447222222222,232.6
1632,CAMERON HILLS,NWT,60.3,-117.05,841.2
142,CAMERON LAKE,BC,49.2833333333333,-124.583333333333,193
575,CAMILLE LAKE,BC,52.4166666666667,-121.966666666667,857
4550,CAMLACHIE,ONT,43.0333333333333,-82.1833333333333,192
4426,CAMP BORDEN,ONT,44.2666666666667,-79.9,221
4427,CAMP BORDEN A,ONT,44.3166666666667,-79.9,233.2
6003,CAMP DES PINS,QUE,53.55,-77.6666666666667,175.3
6014,CAMP DES SAULES,QUE,52.1833333333333,-77.15,243.8
5657,CAMP M-107,QUE,51.0666666666667,-67.4833333333333,487.7
5656,CAMP PROFOND,QUE,50.0166666666667,-67.3833333333333,106.7
5583,CAMP TAMARACOUTA,QUE,45.8333333333333,-74.2,281.9
143,CAMPBELL LAKE,BC,50.0166666666667,-125.4,15.2
148,CAMPBELL R LAKEVIEW FC,BC,50.2,-125.55,198.1
144,CAMPBELL RIVER,BC,50.0166666666667,-125.3,79.2
51317,CAMPBELL RIVER A,BC,49.9519444444444,-125.273055555556,108.8
145,CAMPBELL RIVER A,BC,49.9519444444444,-125.273055555556,108.8
146,CAMPBELL RIVER BCFS,BC,50.0666666666667,-125.316666666667,128
147,CAMPBELL RIVER BCHPA GEN,BC,50.05,-125.316666666667,30.5
149,CAMPBELL RIVER STP,BC,50.0166666666667,-125.233333333333,3
150,CAMPBELL RIVER SURFSIDE,BC,49.945,-125.2075,9
4890,CAMPBELLCROFT,ONT,44.1,-78.3833333333333,198.1
4891,CAMPBELLCROFT GANARASKA,ONT,44.0666666666667,-78.5,259.1
4892,CAMPBELLFORD,ONT,44.3,-77.8,146.3
4893,CAMPBELLS CROSS,ONT,43.8,-79.8666666666667,281.9
4893,CAMPBELLS CROSS,ONT,43.8,-79.8666666666667,281.9
6130,CAMPBELLTON,NB,48,-66.6666666666667,7.6
6131,CAMPBELLTON POWER ST,NB,48,-66.6833333333333,25.6
4894,CAMPBELLVILLE,ONT,43.4666666666667,-79.9333333333333,259.1
2490,CAMPSIE,ALTA,54.1322227777778,-114.677778888889,670.6
51899,CAMPSIE AUTO,ALTA,54.1305669444444,-111.677515277778,647
1839,CAMROSE,ALTA,53.0347222222222,-112.814166666667,739
1838,CAMROSE,ALTA,53.0333333333333,-112.8,675.1
1840,CAMROSE 2,ALTA,52.95,-112.8,737.6
8932,CAMSELL RIVER (AUT),NWT,65.6166666666667,-118.116666666667,230.4
1169,CANAL FLATS,BC,50.15,-115.816666666667,808.6
1168,CANAL FLATS RANGER STN,BC,50.15,-115.816666666667,816.9
4613,CANBORO,ONT,42.9666666666667,-79.5833333333333,182.9
2860,CANDIAC,SASK,50.2166666666667,-103.25,684.9
27005,CANDLE LAKE,SASK,53.75,-105.266666666667,494.7
3214,CANDO,SASK,52.4,-108.266666666667,710
3213,CANDO,SASK,52.4,-108.116666666667,716.3
4614,CANFIELD,ONT,43,-79.75,189
576,CANIM LAKE,BC,51.9,-120.783333333333,944.9
1245,CANIM LAKE EAGLE CREEK,BC,51.8666666666667,-120.866666666667,780
2374,CANMORE,ALTA,51.0833333333333,-115.35,1309.1
4741,CANNING,ONT,43.1833333333333,-80.45,259.1
6311,CANNING,NS,45.15,-64.45,27.1
2861,CANNINGTON MANOR,SASK,49.7166666666667,-102.033333333333,629.1
6132,CANOBIE,NB,47.6833333333333,-65.3833333333333,33.5
1246,CANOE POINT,BC,50.8,-119.066666666667,353.3
1354,CANOE RIVER,BC,52.7333333333333,-119.383333333333,953.1
2862,CANORA,SASK,51.6333333333333,-102.383333333333,481.9
6312,CANSO,NS,45.3166666666667,-60.9666666666667,25.9
6133,CANTERBURY,NB,45.8833333333333,-67.4666666666667,173.8
5643,CAOTIBI,QUE,50.7166666666667,-67.5166666666667,609.6
5671,CAP AUX CORBEAUX,QUE,47.45,-70.45,350.5
5776,CAP CHAT,QUE,49.0833333333333,-66.75,36.6
9000,CAP CHAT (AUT),QUE,49.0833333333333,-66.7333333333333,35.3
5777,CAP CHAT DELVAL,QUE,49.1,-66.7,30.5
5778,CAP CHAT EST,QUE,49.1166666666667,-66.65,15.2
5209,CAP DE LA MADELEINE,QUE,46.3666666666667,-72.5333333333333,17.1
5779,CAP DES ROSIERS,QUE,48.85,-64.2,15
6316,CAP LA RONDE,NS,45.5666666666667,-60.9,15.2
5781,CAP MADELEINE,QUE,49.2333333333333,-65.3166666666667,2
6134,CAP PELE,NB,46.1833333333333,-64.2333333333333,30.5
5210,CAP ROUGE,QUE,46.7666666666667,-71.3,12.2
5782,CAP SEIZE,QUE,49.0166666666667,-66.4,229
5673,CAP TOURMENTE,QUE,47.0666666666667,-70.7833333333333,6.1
27195,CAP-CHAT,QUE,49.1091666666667,-66.6544444444445,5
9001,CAP-D'ESPOIR,QUE,48.4194444444444,-64.3169444444444,15.4
8999,CAP-MADELEINE,QUE,49.2508333333333,-65.3247222222222,29
10963,CAP-ROUGE,QUE,48.3741666666667,-70.5352777777778,7.3
10869,CAP-TOURMENTE,QUE,47.0786111111111,-70.7808333333333,6
10075,CAPE BATHURST,NWT,70.55,-127.95,17
235,CAPE BEALE LIGHT,BC,48.7861111111111,-125.216111111111,25.9
6587,CAPE BROYLE,NFLD,47.1,-52.9333333333333,6.1
50288,CAPE DORSET A,NU,64.2302777777778,-79.525,48.2
50328,CAPE DORSET A,NU,64.2302777777778,-76.525,48.2
1738,CAPE DORSET A,NU,64.2302777777778,-76.525,48.2
47447,CAPE DORSET AWOS,NU,64.23,-76.5266666666667,48.2
43163,CAPE DORSET CLIMATE,NU,64.23075,-76.5304444444444,50
1739,CAPE DYER,NU,66.65,-61.3833333333333,725.1
1740,CAPE DYER A,NU,66.5833333333333,-61.6166666666667,392.6
10936,CAPE GEORGE,NS,45.8741666666667,-61.9013888888889,120
6772,CAPE HARRISON,NFLD,54.7666666666667,-58.45,10.1
1741,CAPE HERSCHEL,NU,78.6166666666667,-74.7,60
1742,CAPE HOOPER,NU,68.4725,-66.8152777777778,390.1
6089,CAPE HOPES ADVANCE,QUE,61.0833333333333,-69.55,73.2
6313,CAPE JOHN,NS,45.7833333333333,-63.0833333333333,15.2
10836,CAPE KAKKIVIAK,NFLD,59.985,-64.165,551.1
10841,CAPE KIGLAPAIT,NFLD,57.1358333333333,-61.4755555555556,834.1
151,CAPE LAZO,BC,49.7,-124.866666666667,38.1
51618,CAPE LIVERPOOL,NU,73.6680638888889,-78.2933527777778,2
10834,CAPE MCLAUGHLIN,NU,68.6647222222222,-85.5913888888889,383.2
10839,CAPE MERCY,NU,64.9577777777778,-63.5777777777778,582.6
152,CAPE MUDGE,BC,49.9984722222222,-125.195472222222,4.6
27382,CAPE MUDGE CS,BC,50,-125.2,4
1787,CAPE NOREM,NWT,77.4666666666667,-110.466666666667,13.7
6588,CAPE NORMAN,NFLD,51.6333333333333,-55.9,18.6
6314,CAPE NORTH,NS,47.0166666666667,-60.45,47.2
1633,CAPE PARRY A,NWT,70.1666666666667,-124.716666666667,86.6
1634,CAPE PEEL,NU,69.05,-107.316666666667,58.5
10828,CAPE PEEL WEST,NU,69.0358333333333,-107.823055555556,165.3
6590,CAPE RACE (AUT),NFLD,46.66,-53.0763888888889,26.5
6315,CAPE SABLE,NS,43.3833333333333,-65.6166666666667,3
237,CAPE SCOTT,BC,50.7822222222222,-128.427222222222,71.6
236,CAPE SCOTT,BC,50.8,-128.45,6.1
6591,CAPE ST GEORGE,NFLD,48.4666666666667,-59.2666666666667,45.7
352,CAPE ST JAMES,BC,51.9333333333333,-131.016666666667,92
10901,CAPE ST JAMES CS,BC,51.9358333333333,-131.015833333333,87.8
5672,CAPE WHITTLE,QUE,50.1630555555556,-60.0616666666667,7
301,CAPILANO INTAKE,BC,49.4,-123.15,146.3
5780,CAPLAN,QUE,48.1,-65.6833333333333,22.9
6592,CAPPAHAYDEN,NFLD,46.8666666666667,-52.95,15.2
2062,CAPPON SOUTH,ALTA,51.05,-110.65,737.6
3995,CARAMAT,ONT,49.2666666666667,-85.8333333333333,338.3
6135,CARAQUET,NB,47.8,-64.9333333333333,18.3
3478,CARBERRY,MAN,49.8666666666667,-99.35,385
27741,CARBERRY CS,MAN,49.9058055555556,-99.3574444444444,383.5
2063,CARBON,ALTA,51.4833333333333,-113.15,777.2
2375,CARBONDALE LO,ALTA,49.4333333333333,-114.366666666667,1798.3
6593,CARBONEAR,NFLD,47.7333333333333,-53.2333333333333,23.5
1526,CARCROSS,YT,60.1743333333333,-134.697808333333,660
3479,CARDALE,MAN,50.2333333333333,-100.333333333333,556.3
4238,CARDINAL,ONT,44.8,-75.3666666666667,52
4238,CARDINAL,ONT,44.8,-75.3666666666667,52
2863,CARDROSS,SASK,49.8166666666667,-105.65,701
8763,CARDSTON,ALTA,49.2,-113.3,0
2211,CARDSTON,ALTA,49.1316694444444,-113.241952777778,1193
26971,CARDSTON,ALTA,49.200575,-113.285838888889,1136
2212,CARDSTON EXP ST,ALTA,49.2,-113.3,1166.2
8954,CAREY ISLANDS GREENLAND,OTHR,76.7333333333333,-73.1833333333333,10.1
1355,CARIBOO LODGE,BC,52.7194697222222,-119.471749166667,1095.8
3996,CARIBOU ISLAND,ONT,47.3333333333333,-85.8333333333333,186.5
7582,CARIBOU ISLAND (AUT),ONT,47.3333333333333,-85.8333333333333,187
2669,CARIBOU MTN LO,ALTA,59.5166666666667,-114.566666666667,914.4
2064,CARIBOU MTN LO,ALTA,51.5166666666667,-114.566666666667,914.4
8990,CARIBOU POINT (AUT),NS,45.7666666666667,-62.6833333333333,2.4
5783,CARLETON,QUE,48.1166666666667,-66.1333333333333,12.2
4240,CARLETON PLACE,ONT,45.15,-76.2,145
4239,CARLETON PLACE,ONT,45.15,-76.1666666666667,136.9
8496,CARLETON SUR MER,QUE,48.1333333333333,-66.1166666666667,541
2671,CARLSON TOWER,ALTA,58.9166666666667,-111.8,213.4
2670,CARLSON'S LANDING LO,ALTA,58.9666666666667,-111.8,243.8
3280,CARLTON,SASK,52.8,-106.566666666667,520.6
2864,CARLYLE,SASK,49.6333333333333,-102.266666666667,630.9
1527,CARMACKS,YT,62.1,-136.3,524.9
27950,CARMACKS CS,YT,62.115,-136.191972222222,542.9
1528,CARMACKS TOWER,YT,62.1833333333333,-136.483333333333,1234.4
3582,CARMAN,MAN,49.4333333333333,-98.15,281.9
3583,CARMAN 2,MAN,49.5166666666667,-98,265.2
3570,CARMAN 3,MAN,49.5166666666667,-97.95,258.5
26857,CARMAN U OF M CS,MAN,49.4981111111111,-98.02975,268.2
238,CARMANAH,BC,48.6333333333333,-124.783333333333,39.6
239,CARMANAH POINT,BC,48.6116666666667,-124.751388888889,38.1
2213,CARMANGAY,ALTA,50.15,-112.783333333333,944.9
2214,CARMANGAY EXP ST,ALTA,50.1333333333333,-113.1,938.8
2215,CARMANGAY EXP ST 2,ALTA,50.2166666666667,-113.016666666667,938.8
2216,CARMANGAY EXP ST 3,ALTA,50.1166666666667,-113.333333333333,938.8
2217,CARMANGAY PLAINFIELD,ALTA,50.2166666666667,-112.883333333333,914.4
2218,CARMANGAY VILLAGE,ALTA,50.1244444444444,-113.111666666667,939.4
6594,CARMANVILLE,NFLD,49.4,-54.2666666666667,4
1082,CARMI,BC,49.5,-119.083333333333,1244.8
3078,CARMICHAEL,SASK,50.05,-108.65,807.4
3079,CARMICHAEL EXP ST,SASK,50.05,-108.65,807.4
240,CARNATION CREEK CDF,BC,48.9,-125,61
2865,CARNDUFF,SASK,49.2166666666667,-101.75,515.1
30055,CARNWOOD,ALTA,53.2343797222222,-114.654411944444,793.2
6595,CAROL LAKE PROJECT,NFLD,52.95,-66.9,0
2866,CARON,SASK,50.45,-105.866666666667,579.1
4241,CARP,ONT,45.3,-75.9833333333333,114.3
3480,CARROLL,MAN,49.55,-100,487.7
3475,CARROLL 2W,MAN,49.6,-100.066666666667,457.2
2491,CARROT CREEK,ALTA,53.6166666666667,-115.8,853.1
2492,CARROT CREEK LO,ALTA,53.45,-115.866666666667,1043.9
3408,CARROT RIVER EXP ST,SASK,53.3333333333333,-103.516666666667,0
3215,CARRUTHERS,SASK,52.9,-109.183333333333,643.1
2065,CARSTAIRS WEST,ALTA,51.5666666666667,-114.283333333333,1090
3358,CARSWELL LAKE,SASK,58.5333333333333,-109.483333333333,330.1
4108,CARTIER,ONT,46.7,-81.5666666666667,420.9
3584,CARTWRIGHT,MAN,49.1,-99.35,461.5
3581,CARTWRIGHT,MAN,49.05,-99.4166666666667,472.1
6773,CARTWRIGHT,NFLD,53.7083333333333,-57.035,14.3
3580,CARTWRIGHT 2,MAN,49.1666666666667,-99.5166666666667,467.3
6596,CARTYVILLE,NFLD,48.2333333333333,-58.8166666666667,30.5
49968,CARWAY,ALTA,49.0005555555556,-113.376111111111,1354
2219,CARWAY,ALTA,48.999725,-113.376111111111,1354
5784,CASCAPEDIA,QUE,48.7,-66.2166666666667,0
1529,CASINO CREEK,YT,62.7333333333333,-138.833333333333,1100
1530,CASINO MTN,YT,62.7333333333333,-138.833333333333,1005
1451,CASSIAR,BC,59.2833333333333,-129.833333333333,1077.5
1452,CASSIAR MINE,BC,59.3333333333333,-129.816666666667,1853.2
2377,CASTLE,ALTA,49.4,-114.333333333333,1360
2376,CASTLE MOUNTAIN VILLAGE,ALTA,51.2666666666667,-115.916666666667,1524
5017,CASTLE ROCK 6 NORTH,BC,52.5413888888889,-122.488611111111,541
1104,CASTLEGAR,BC,49.3333333333333,-117.666666666667,434.3
51458,CASTLEGAR A,BC,49.2961111111111,-117.6325,495.6
1105,CASTLEGAR A,BC,49.2963888888889,-117.6325,495.6
1106,CASTLEGAR BCHPA DAM,BC,49.3433333333333,-117.774444444444,435
30434,CASTLEGAR ROBSON PUMPHOUSE,BC,49.3411111111111,-117.734722222222,435
4895,CASTLETON,ONT,44.1166666666667,-77.8833333333333,167.6
1841,CASTOR,ALTA,52.2166666666667,-111.916666666667,769.6
1842,CASTOR,ALTA,52.1333333333333,-111.9,807.7
6597,CAT ARM RIVER,NFLD,50.0833333333333,-56.9166666666667,381
4242,CATARAQUI TS,ONT,44.3666666666667,-76.6166666666667,144.8
556,CATFISH CREEK,BC,53.6333333333333,-120.8,648
4742,CATHCART,ONT,43.1166666666667,-80.5666666666667,269.7
8264,CATHEDRAL POINT (AUT),BC,52.1874527777778,-127.471161111111,25.7
5785,CAUSAPSCAL,QUE,48.3666666666667,-67.2333333333333,168
5786,CAUSAPSCAL RECHERCHES,QUE,48.5,-67.1666666666667,332.2
990,CAWSTON SIMILKAMEEN,BC,49.1833333333333,-119.766666666667,398
3765,CAYER,MAN,51.25,-99.0833333333333,259.1
2220,CAYLEY,ALTA,50.4833333333333,-113.866666666667,1071.4
1399,CECIL LAKE CDA,BC,56.3333333333333,-120.283333333333,772.7
4896,CEDAR VALLEY,ONT,44.0666666666667,-79.3666666666667,283.5
448,CEDARVALE,BC,55.0166666666667,-128.316666666667,152
1247,CELISTA,BC,50.9555555555556,-119.379444444444,515
3915,CENTRAL PATRICIA,ONT,51.5,-90.15,345
24,CENTRAL SAANICH ISL VIEW,BC,48.5733416666667,-123.392127777778,38
23,CENTRAL SAANICH TANNER,BC,48.55,-123.4,88.4
25,CENTRAL SAANICH VEYANESS,BC,48.5833333333333,-123.416666666667,53.3
4551,CENTRALIA A,ONT,43.3,-81.5166666666667,253
4897,CENTRETON,ONT,44.0833333333333,-78.0666666666667,244
6136,CENTREVILLE,NB,46.3833333333333,-67.7,143
4898,CENTREVILLE,ONT,44.4033583333333,-76.9078033333333,150
2066,CEREAL,ALTA,51.4833333333333,-110.8,746.8
2066,CEREAL,ALTA,51.4833333333333,-110.8,746.8
50938,CEREAL AGCM,ALTA,51.2757997222222,-110.824399722222,753
2067,CESSFORD,ALTA,51.0166666666667,-111.55,701
2867,CEYLON,SASK,49.4666666666667,-104.6,712.9
2868,CEYLON,SASK,49.3833333333333,-104.65,753
43343,CFB SHILO CCOC,MAN,49.7905555555556,-99.6286111111111,372
1843,CHAILEY,ALTA,53.55,-111.25,670
6317,CHAIN LAKE,NS,44.6333333333333,-63.6333333333333,59.4
2221,CHAIN LAKES RS,ALTA,50.2,-114.2,1371.6
4243,CHALK RIVER AECL,ONT,46.05,-77.3666666666667,121.9
3167,CHAMBERY,SASK,49.3666666666667,-108.433333333333,929.6
26797,CHAMOUCHOUANE,QUE,49.2786111111111,-73.3555555555556,303.8
32254,CHAMPION AGDM,ALTA,50.2819447222222,-113.350277777778,1006
5211,CHAMPLAIN,QUE,46.4666666666667,-72.3333333333333,12
5787,CHANDLER,QUE,48.35,-64.6833333333333,38.1
6598,CHANNEL,NFLD,47.6166666666667,-59.15,15.2
3728,CHANNEL ISLAND,MAN,52.3,-97.3833333333333,216.4
27443,CHAPAIS,QUE,49.8225,-74.9752777777778,381.1
6025,CHAPAIS,QUE,49.7833333333333,-74.8666666666667,402
6026,CHAPAIS 2,QUE,49.7833333333333,-74.85,396.2
10689,CHAPEL ROCK,ALTA,49.7233333333333,-114.279444444444,1510
4109,CHAPLEAU,ONT,47.8333333333333,-83.4333333333333,428.2
4110,CHAPLEAU 2,ONT,47.8333333333333,-83.4333333333333,431.6
4111,CHAPLEAU A,ONT,47.82,-83.3466666666667,448.1
3080,CHAPLIN,SASK,50.4666666666667,-106.65,671.5
5212,CHARLESBOURG JAR ZOO,QUE,46.9,-71.3,152.4
5213,CHARLESBOURG PARC ORLEAN,QUE,46.8666666666667,-71.2666666666667,114.3
6599,CHARLESTON,NFLD,48.3833333333333,-53.6666666666667,13
6318,CHARLESVILLE,NS,43.5833333333333,-65.7833333333333,2.7
27442,CHARLEVOIX (MRC),QUE,47.2841666666667,-70.6375,722.7
8455,CHARLEVOIX A,QUE,47.6,-70.2333333333333,298
510,CHARLIE CREEK RANCH,BC,51.75,-124.466666666667,1158.2
1398,CHARLIE LAKE,BC,56.2975833333333,-121.016416666667,758.9
4428,CHARLINCH,ONT,45.45,-79.25,326.1
6137,CHARLO A,NB,47.9833333333333,-66.3333333333333,40.2
42103,CHARLO AUTO,NB,47.99,-66.3341666666667,42
6138,CHARLO FALLS,NB,47.9666666666667,-66.4833333333333,16.8
509,CHARLOTTE LAKE,BC,52.15,-125.283333333333,1174.1
6525,CHARLOTTETOWN,PEI,46.2333333333333,-63.1666666666667,13.7
50621,CHARLOTTETOWN A,PEI,46.2891666666667,-63.1191666666667,48.5
6526,CHARLOTTETOWN A,PEI,46.2886166666667,-63.1286305555556,48.8
6527,CHARLOTTETOWN CDA,PEI,46.25,-63.1333333333333,22.6
6928,CHARLOTTETOWN CDA CS,PEI,46.25,-63.1333333333333,22.6
6528,CHARLOTTETOWN SDU,PEI,46.25,-63.1333333333333,24.4
5584,CHARTERIS,QUE,45.6833333333333,-76.4333333333333,168
5334,CHARTIERVILLE,QUE,45.2833333333333,-71.2,518.2
1248,CHASE,BC,50.8188888888889,-119.686388888889,359
5674,CHATEAU RICHER,QUE,46.9666666666667,-71.0333333333333,15.2
3729,CHATFIELD,MAN,50.8166666666667,-97.5,265.8
4616,CHATHAM,ONT,42.4333333333333,-82.2666666666667,178
4615,CHATHAM,ONT,42.4,-82.2,182.9
6139,CHATHAM,NB,47.05,-65.4833333333333,29.9
4617,CHATHAM 2,ONT,42.4,-82.2,181.4
4618,CHATHAM CFCO,ONT,42.3833333333333,-82.2,181.4
6141,CHATHAM NBEPC,NB,47.05,-65.4666666666667,3.7
153,CHATHAM POINT,BC,50.3331944444444,-125.445555555556,22.9
4620,CHATHAM WATERWORKS,ONT,42.4166666666667,-82.1833333333333,182.9
4619,CHATHAM WPCP,ONT,42.3900066666667,-82.21528,180
43190,CHATHAM-BROWNSBURG,QUE,45.6230777777778,-74.4108388888889,75
4244,CHATS FALLS,ONT,45.4666666666667,-76.2333333333333,93.9
4429,CHATSWORTH,ONT,44.395015,-80.9055577777778,305
1844,CHAUVIN,ALTA,52.7166666666667,-110.166666666667,640.1
1845,CHAUVIN EXP ST,ALTA,52.7,-110.133333333333,627.9
1846,CHEDDERVILLE CDA EPF,ALTA,52.2,-114.866666666667,1036.3
302,CHEEKYE,BC,49.8,-123.15,48.8
5585,CHELSEA,QUE,45.5166666666667,-75.7833333333333,112.5
4899,CHELTENHAM,ONT,43.75,-79.9333333333333,281.9
26,CHEMAINUS,BC,48.9350222222222,-123.741666666667,75
2,CHEMAINUS BARE POINT,BC,48.9166666666667,-123.7,3
5894,CHEMIN CHIBOUGAMAU,QUE,49.2833333333333,-73.6333333333333,365.8
5895,CHEMIN CHUTE DES PASSES,QUE,49.4166666666667,-71.4,365.8
4245,CHENAUX,ONT,45.5833333333333,-76.6833333333333,84.1
5586,CHENEVILLE,QUE,45.9,-75.0833333333333,222.5
2672,CHERRY MOUNTAIN TOWER,ALTA,59.3833333333333,-112.383333333333,305
1249,CHERRYVILLE,BC,50.2333333333333,-118.583333333333,664.5
4552,CHESLEY,ONT,44.2833333333333,-81.1333333333333,251.5
6319,CHESTER,NS,44.55,-64.25,60.7
6320,CHESTER BASIN,NS,44.55,-64.3166666666667,13.4
1710,CHESTERFIELD,NU,63.3333333333333,-90.7166666666667,6.4
1711,CHESTERFIELD INLET,NU,63.75,-91.8333333333333,14.6
51998,CHESTERFIELD INLET A,NU,63.3472222222222,-90.7311111111111,9.8
1712,CHESTERFIELD INLET A,NU,63.3469444444444,-90.7311111111111,9.8
2222,CHESTERMERE LAKE SOUTH,ALTA,51.0333333333333,-113.783333333333,1021.1
4246,CHESTERVILLE,ONT,45.1,-75.2333333333333,70.1
4247,CHESTERVILLE 2,ONT,45.0166666666667,-75.2,85
6322,CHETICAMP,NS,46.65,-60.95,11
6321,CHETICAMP,NS,46.6333333333333,-61.05,335.3
27600,CHETICAMP CS,NS,46.645,-60.9472222222222,43.9
49769,CHETICAMP SNOW,NS,46.6333333333333,-60.95,27
1400,CHETWYND A,BC,55.6872222222222,-121.626666666667,609.6
1401,CHETWYND BCFS,BC,55.7,-121.616666666667,659.9
1402,CHETWYND SUKUNKA,BC,55.2333333333333,-121.65,749.8
8456,CHEVERY,QUE,50.465,-59.6394444444444,7.7
6027,CHIBOUGAMAU,QUE,49.9166666666667,-74.3666666666667,378
6028,CHIBOUGAMAU A,QUE,49.8166666666667,-74.4166666666667,401.7
6029,CHIBOUGAMAU CHAPAIS A,QUE,49.7666666666667,-74.5333333333333,387.1
10865,CHIBOUGAMAU-CHAPAIS A,QUE,49.7666666666667,-74.5333333333333,387.1
5896,CHICOUTIMI,QUE,48.4166666666667,-71.0833333333333,15.2
5897,CHICOUTIMI OUEST,QUE,48.4166666666667,-71.0833333333333,175
5898,CHICOUTIMI UNIVERSITE,QUE,48.4166666666667,-71.05,76.2
9410,CHIEF CUSTOMS,ALTA,49,-113.666666666667,1372
9410,CHIEF CUSTOMS,ALTA,49,-113.666666666667,1372
577,CHIEF LAKE,BC,54.1,-123.066666666667,792.5
511,CHILKO LAKE,BC,51.6166666666667,-124.15,1172
735,CHILLIWACK,BC,49.1721583333333,-121.924658333333,11
736,CHILLIWACK CITY,BC,49.1833333333333,-121.95,6.1
737,CHILLIWACK GIBSON ROAD,BC,49.1666666666667,-121.866666666667,12
738,CHILLIWACK MARBLEHILL CK,BC,49.1333333333333,-121.833333333333,213.4
739,CHILLIWACK R CENTRE CRK,BC,49.1,-121.55,487.7
740,CHILLIWACK R FOLEY CREEK,BC,49.1,-121.633333333333,369.1
716,CHILLIWACK R HATCHERY,BC,49.0833333333333,-121.7,213
742,CHILLIWACK R TAMAHI CRK,BC,49.0666666666667,-121.833333333333,137.2
743,CHILLIWACK WESTVIEW,BC,49.1666666666667,-121.966666666667,6.1
744,CHILLIWACK YALE RD EAST,BC,49.1833333333333,-121.9,7.6
2673,CHINCHAGA LO,ALTA,57.1166666666667,-118.333333333333,762
1250,CHINOOK COVE,BC,51.25,-120.183333333333,403.6
1251,CHINOOK COVE POSBY LAKE,BC,51.2622222222222,-120.203888888889,716
2674,CHIPEWYAN LAKES LO,ALTA,57,-113.416666666667,563.9
1847,CHIPMAN,ALTA,53.7,-112.583333333333,669.3
6144,CHIPMAN,NB,46.15,-65.9,19.8
6143,CHIPMAN,NB,46.1833333333333,-65.8666666666667,10.7
6142,CHIPMAN,NB,46.1833333333333,-65.8666666666667,10.7
2493,CHISHOLM LO,ALTA,54.9333333333333,-114.033333333333,676.7
2494,CHISHOLM MILLS,ALTA,54.9166666666667,-114.2,579.1
3409,CHOICELAND,SASK,53.5,-104.483333333333,442
1083,CHRISTIAN VALLEY,BC,49.65,-118.75,804.7
4901,CHRISTIE CONSERVATION,ONT,43.2833333333333,-80.0166666666667,251.5
46927,CHRISTINA LAKE,ALTA,55.6333333333333,-110.833333333333,370
2495,CHRISTINA LO,ALTA,55.5833333333333,-111.85,823
5335,CHRISTMAS BROOK NORTH,QUE,45.4166666666667,-71.3666666666667,0
27289,CHROME ISLAND,BC,49.4666666666667,-124.683333333333,11.3
51678,CHROME ISLAND,BC,49.4722241666667,-124.683058055556,10
2378,CHUNGO LO,ALTA,52.6833333333333,-116.7,2304.3
48969,CHURCHILL,MAN,58.7391666666667,-94.0663888888889,29.3
50148,CHURCHILL A,MAN,58.7391666666667,-94.0663888888889,29.3
3871,CHURCHILL A,MAN,58.7391666666667,-94.0663888888889,29.3
47408,CHURCHILL AWOS,MAN,58.7372222222222,-94.0572222222222,28.7
44244,CHURCHILL CLIMATE,MAN,58.7333333333333,-94.0666666666667,28.5
1453,CHURCHILL COPPER ONE,BC,58.45,-125.4,1592.6
6940,CHURCHILL FALLS,NFLD,53.5333333333333,-63.9666666666667,488.5
10887,CHURCHILL FALLS,NFLD,53.5577777777778,-64.0938888888889,439.5
49629,CHURCHILL FALLS A,NFLD,53.5619444444444,-64.1063888888889,439.5
6774,CHURCHILL FALLS A,NFLD,53.55,-64.1,439.5
3872,CHURCHILL MARINE,MAN,58.7833333333333,-94.1833333333333,13.4
10745,CHURCHILL UA,MAN,58.7333333333333,-94.0666666666667,28.5
5899,CHUTE A LA SAVANE,QUE,48.7833333333333,-71.85,140.2
5900,CHUTE A MURDOCK,QUE,48.5166666666667,-71.25,188.4
5901,CHUTE AUX GALETS,QUE,48.65,-71.2,152.4
5675,CHUTE AUX OUTARDES,QUE,49.1333333333333,-68.3833333333333,15.2
5902,CHUTE DES PASSES,QUE,49.85,-71.15,270.7
5904,CHUTE DES PASSES 2,QUE,49.8166666666667,-71.15,266.7
5905,CHUTE DU DIABLE,QUE,48.75,-71.7,173.7
5336,CHUTE HEMMINGS,QUE,45.8666666666667,-72.45,86.9
991,CHUTE LAKE,BC,49.6833333333333,-119.533333333333,1193.6
5214,CHUTE PANET,QUE,46.8666666666667,-71.8666666666667,152.4
5587,CHUTE ST PHILIPPE,QUE,46.65,-75.25,251.5
5903,CHUTE-DES-PASSES,QUE,49.8402777777778,-71.1683333333333,398.2
3359,CIGAR LAKE,SASK,58.0833333333333,-104.483333333333,467
353,CINOLA MINE SITE,BC,53.5,-132.133333333333,75.9
4248,CITY VIEW,ONT,45.35,-75.7333333333333,88.4
6323,CLAM HARBOUR,NS,44.7333333333333,-62.8833333333333,7.6
27869,CLANWILLIAM,MAN,50.3513888888889,-99.8138888888889,623.3
4902,CLAREMONT,ONT,43.95,-79.0666666666667,175.3
4900,CLAREMONT FIELD CENTRE,ONT,43.95,-79.0833333333333,182.9
6324,CLARENCE,NS,44.9166666666667,-65.1666666666667,51.5
6600,CLARENVILLE,NFLD,48.15,-53.9666666666667,7.6
6601,CLARENVILLE,NFLD,48.3633336111111,-53.96389,66.6
2224,CLARESHOLM,ALTA,50.0036305555556,-113.638636111111,1009
2225,CLARESHOLM EXP FARM,ALTA,50.0333333333333,-113.583333333333,1033.3
2226,CLARESHOLM EXP ST,ALTA,50.0166666666667,-113.633333333333,1033.3
2223,CLARESHOLM LAING,ALTA,50.05,-113.366666666667,975.4
2372,CLARESHOLM LYNDON CREEK,ALTA,50.05,-113.916666666667,1120.1
2200,CLARESHOLM MEADOW CREEK,ALTA,49.9375222222222,-113.737519444444,1035
2198,CLARESHOLM NORTH,ALTA,50.0333333333333,-113.583333333333,1036.3
2360,CLARESHOLM TROUT CREEK,ALTA,49.9666666666667,-113.866666666667,1164.3
2227,CLARESHOLM WATERWORKS,ALTA,50.0189055555556,-113.710558333333,1008
5676,CLARKE CITY,QUE,50.1833333333333,-66.6333333333333,53.3
5677,CLARKE CITY S,QUE,50.2,-66.6333333333333,61
4430,CLARKSBURG,ONT,44.5166666666667,-80.4666666666667,231.6
4903,CLARKSON,ONT,43.5166666666667,-79.6166666666667,93
2869,CLAYBANK,SASK,50.05,-105.216666666667,643.4
4249,CLAYBANK,ONT,45.4166666666667,-76.4,106.7
3168,CLAYDON,SASK,49.1333333333333,-109.1,975
241,CLAYOQUOT,BC,49.15,-125.9,22.9
4621,CLEAR CREEK,ONT,42.5833333333333,-80.5666666666667,190.2
51838,CLEAR HILLS AGCM,ALTA,56.528905,-117.933352222222,672
2675,CLEAR HILLS LO,ALTA,56.6,-119.416666666667,932.7
2645,CLEARDALE,ALTA,56.3333333333333,-119.483333333333,643.1
32255,CLEARDALE AGDM,ALTA,56.3144469444444,-119.745,630
1848,CLEARWATER,ALTA,51.9833333333333,-115.25,1280
1252,CLEARWATER,BC,51.65,-120.033333333333,466
1242,CLEARWATER AXEL CRK,BC,51.5166666666667,-120.116666666667,716
1241,CLEARWATER BLACKPOOL,BC,51.6166666666667,-120.116666666667,420.9
1213,CLEARWATER CANDLE CRK,BC,51.6833333333333,-120,701
1218,CLEARWATER SPAHATS CREEK,BC,51.7333333333333,-120,869
1253,CLEARWATER SUNSHINE,BC,51.65,-120.1,451.1
6325,CLEMENTSVALE,NS,44.6166666666667,-65.5666666666667,106.7
5678,CLERMONT,QUE,47.6833333333333,-70.25,152.4
4743,CLIFFORD,ONT,43.9666666666667,-80.9666666666667,373.4
4553,CLIFFORD,ONT,43.9666666666667,-81.1166666666667,365.8
6326,CLIFTON,NS,45.35,-63.4166666666667,15.2
1636,CLIFTON POINT,NWT,69.2,-118.633333333333,32.6
1636,CLIFTON POINT,NWT,69.2,-118.633333333333,32.6
5337,CLIFTON RIVER,QUE,45.3,-71.5666666666667,342.9
5338,CLIFTON RIVER SOUTH,QUE,45.2333333333333,-71.5,0
3169,CLIMAX,SASK,49.2,-108.383333333333,939
2380,CLINE LO,ALTA,52.1666666666667,-116.683333333333,1828.8
2379,CLINE LO,ALTA,52.1780555555556,-116.400011111111,2050
4554,CLINTON,ONT,43.6,-81.5333333333333,274.3
1254,CLINTON,BC,51.0833333333333,-121.566666666667,891.5
1255,CLINTON (AUT),BC,51.1447222222222,-121.504722222222,1056.7
51558,CLINTON A,BC,51.2663888888889,-121.684722222222,1126.2
1532,CLINTON CREEK,YT,64.4666666666667,-140.733333333333,576.1
1531,CLINTON CREEK,YT,64.4166666666667,-140.666666666667,335.3
1637,CLINTON POINT,NU,69.5833333333333,-120.8,100.6
4250,CLONTARF,ONT,45.3833333333333,-77.15,244.8
5953,CLOVA,QUE,48.1166666666667,-75.3666666666667,423.4
745,CLOVERDALE,BC,49.1,-122.733333333333,3
746,CLOVERDALE CENTRE,BC,49.1,-122.733333333333,3
747,CLOVERDALE EAST,BC,49.1089138888889,-122.697508333333,50
748,CLOVERVALLEY FRYS CORNER,BC,49.1333333333333,-122.733333333333,9.1
303,CLOWHOM FALLS,BC,49.7166666666667,-123.533333333333,22.9
5159,CLOYNE ONT HYDRO,ONT,44.8166666666667,-77.1833333333333,283.5
5216,CLUB TOURILLI,QUE,47.0833333333333,-71.9,249.9
5215,CLUB TOURILLI,QUE,47.0333333333333,-71.7,265.2
3360,CLUFF LAKE,SASK,58.3666666666667,-109.516666666667,330.1
27737,CLUFF LAKE AUTO,SASK,58.3911111111111,-109.516388888889,338.9
6602,CLUNYS,NFLD,47.2,-52.95,121.9
10896,CLUT LAKE (AUT),NWT,65.6,-117.766666666667,185
1743,CLYDE A,NU,70.4861111111111,-68.5166666666667,26.5
47387,CLYDE AWOS,NU,70.4861111111111,-68.5166666666667,26.5
51078,CLYDE RIVER A,NU,70.4858333333333,-68.5169444444444,26.5
51077,CLYDE RIVER A,NU,70.4858333333333,-68.5169444444444,26.5
42244,CLYDE RIVER CLIMATE,NU,70.4833333333333,-68.5166666666667,26.5
6327,CLYDESDALE,NS,45.6333333333333,-62.0333333333333,56.7
154,COAL HARBOUR RUPERT IN,BC,50.6,-127.5,57.3
6846,COAL RIVER,BC,59.6666666666667,-127.15,517
2497,COAL VALLEY,ALTA,53.0833333333333,-116.816666666667,1405.7
8723,COALCAMP CREEK,ALTA,51.7333333333333,-114.933333333333,1379.5
2228,COALDALE,ALTA,49.7333333333333,-112.633333333333,862
2229,COALDALE EXP ST,ALTA,49.7166666666667,-112.633333333333,862
2496,COALSPUR,ALTA,53.1833333333333,-117,1173.5
5339,COATICOOK,QUE,45.15,-71.8,259.1
27,COBBLE HILL,BC,48.6833333333333,-123.6,99
28,COBBLE HILL DELOUME ROAD,BC,48.65,-123.566666666667,61
4251,COBDEN ONTARIO HYDRO,ONT,45.6333333333333,-76.8666666666667,140.2
5160,COBOCONK,ONT,44.6,-78.7666666666667,289.6
4904,COBOURG,ONT,43.9666666666667,-78.1666666666667,78.6
7870,COBOURG (AUT),ONT,43.95,-78.1666666666667,77.7
4906,COBOURG 2,ONT,43.95,-78.15,83.8
4905,COBOURG STP,ONT,43.9666666666667,-78.1833333333333,79.2
1744,COBURG ISLAND,NU,75.9166666666667,-79,3
4142,COCHRANE,ONT,49.0666666666667,-81.0333333333333,274.9
2230,COCHRANE,ALTA,51.1969472222222,-114.434469444444,1332
42443,COCHRANE BIGHILL CREEK,ALTA,51.2425194444444,-114.418077777778,1329
2199,COCHRANE CATHCART,ALTA,51.2,-114.366666666667,1310.6
2167,COCHRANE VE6CQC,ALTA,51.2380611111111,-114.447794444444,1303
4207,COCKBURN ISLAND,ONT,45.95,-83.3,185.9
3081,CODERRE,SASK,50.1333333333333,-106.366666666667,684.9
2676,CODESA LO,ALTA,55.6666666666667,-118.083333333333,792.5
3410,CODETTE ELKHORN,SASK,53.25,-104.166666666667,398.1
4907,CODRINGTON,ONT,44.1666666666667,-77.8,144.8
43923,COE HILL,ONT,44.9225066666667,-77.8847433333333,360
5161,COE HILL,ONT,44.8833333333333,-77.8333333333333,321
6954,COLBORNE,ONT,44,-77.8833333333333,105
4908,COLD CREEK,ONT,43.9166666666667,-79.7,251
2498,COLD CREEK RS,ALTA,53.6166666666667,-115.583333333333,792.5
1489,COLD FISH LAKE,BC,57.6666666666667,-128.833333333333,1202.7
2832,COLD LAKE A,ALTA,54.4166666666667,-110.283333333333,541
43164,COLD LAKE SNOW,ALTA,54.4147222222222,-110.263888888889,546.2
6145,COLDBROOK,NB,45.3166666666667,-66.0333333333333,4
4744,COLDSTREAM,ONT,43.0166666666667,-81.5,0
4431,COLDWATER,ONT,44.7,-79.6666666666667,182.9
4432,COLDWATER WARMINSTER,ONT,44.6311216666667,-79.538905,285
29,COLE BAY,BC,48.65,-123.4,36.6
2381,COLEMAN,ALTA,49.6333333333333,-114.583333333333,1341.1
2382,COLEMAN RS,ALTA,49.65,-114.5,1341.1
6102,COLES ISLAND,NB,45.9166666666667,-65.8166666666667,15.2
6146,COLESON COVE,NB,45.15,-66.2,30.5
6603,COLINET,NFLD,47.2166666666667,-53.55,27.4
6605,COLINET PEAT BOG CDA,NFLD,47.2333333333333,-53.5166666666667,54.9
6604,COLINET PEAT BOG CDA,NFLD,47.2166666666667,-53.5,104.2
6859,COLINTON,ALTA,54.6333333333333,-113.216666666667,602.3
6328,COLLEGE GRANT,NS,45.65,-63.1,96.9
6329,COLLEGEVILLE,NS,45.4833333333333,-62.0166666666667,76.2
512,COLLEYMOUNT,BC,54.0166666666667,-126.133333333333,731.5
27623,COLLINA,NB,45.7922305555556,-65.65335,250
10955,COLLINGWOOD,ONT,44.5,-80.2166666666667,179.8
4433,COLLINGWOOD,ONT,44.4833333333333,-80.2166666666667,182.9
4434,COLLINGWOOD A,ONT,44.45,-80.1666666666667,220.7
4435,COLLINGWOOD SMART BROS,ONT,44.5,-80.25,198.1
4436,COLLINGWOOD WPCP,ONT,44.5,-80.2166666666667,180
3361,COLLINS BAY,SASK,58.1833333333333,-103.7,491.9
10663,COLLINS BAY,SASK,58.1833333333333,-103.7,492.1
6873,COLLINS BAY CAMECO,SASK,58.1833333333333,-103.7,490.1
459,COLLINS LAKE,BC,54.1166666666667,-127.166666666667,836.7
1638,COLOMAC MINE,NWT,64.4166666666667,-115.1,327.1
3281,COLONSAY,SASK,51.9333333333333,-105.766666666667,542.5
1107,COLUMBIA GARDENS,BC,49.05,-117.6,432.8
1108,COLUMBIA GARDENS NORTH,BC,49.0666666666667,-117.6,487.7
2383,COLUMBIA ICEFIELD,ALTA,52.2333333333333,-117.166666666667,1981.2
10867,COLVILLE LAKE,NWT,67.0416694444444,-126.083891666667,259.1
30,COLWOOD HATLEY DR,BC,48.4177777777778,-123.480555555556,75.6
30,COLWOOD HATLEY DR,BC,48.4177777777778,-123.480555555556,75.6
4252,COMBERMERE,ONT,45.3666666666667,-77.6166666666667,286.5
6606,COME BY CHANCE,NFLD,47.8,-54,34
6607,COMFORT COVE,NFLD,49.2666666666667,-54.8833333333333,99.4
6608,COMFORT COVE DECCA,NFLD,49.35,-54.8666666666667,7.3
44786,COMMISSAIRE,QUE,47.9911111111111,-72.3027777777778,419
155,COMOX A,BC,49.7166666666667,-124.9,25.6
156,COMOX PCC,BC,49.6861111111111,-125.033055555556,11.9
1849,COMPEER,ALTA,51.9666666666667,-110.033333333333,701
8914,COMPRESSION RIDGE,ALTA,50.9,-114.916666666667,1798.3
5340,COMPTON STATION,QUE,45.2,-71.85,297.2
5341,COMPTON STATION CDA FE,QUE,45.2166666666667,-71.8666666666667,312.4
2870,CONDIE,SASK,50.55,-104.766666666667,571.5
4745,CONESTOGO,ONT,43.55,-80.5166666666667,0
27846,CONFEDERATION BRIDGE,PEI,46.2333333333333,-63.7333333333333,54.1
3082,CONGRESS,SASK,49.7666666666667,-106.116666666667,719.9
4112,CONISTON,ONT,46.4666666666667,-80.8166666666667,237.4
4113,CONISTON STP,ONT,46.4833333333333,-80.85,267.6
2499,CONKLIN,ALTA,55.6833333333333,-111.1,541
2500,CONKLIN LO,ALTA,55.6166666666667,-111.183333333333,670.6
3873,CONLIN LAKE WABOWDEN,MAN,54.8333333333333,-98.6666666666667,221
4143,CONNAUGHT,ONT,48.6166666666667,-80.9166666666667,281.3
48908,CONNAUGHT,ONT,48.6166666666667,-80.9,281.3
10860,CONNE RIVER (AUT),NFLD,48.1666666666667,-55.4833333333333,182.9
3411,CONNELL CREEK EXP ST,SASK,53.15,-103.316666666667,0
2231,CONNELLY CREEK,ALTA,49.6161194444444,-114.215022222222,1249
3282,CONQUEST,SASK,51.5166666666667,-107.25,571.2
32230,CONSORT AGDM,ALTA,51.9369466666667,-110.713056388889,772
1850,CONSORT CDA EPF,ALTA,52.0333333333333,-110.8,769.6
1851,CONSORT WADES,ALTA,51.85,-110.766666666667,752.9
3170,CONSUL,SASK,49.3,-109.516666666667,930.9
3171,CONSUL,SASK,49.3,-109.483333333333,941.5
3362,CONTACT LAKE,SASK,55.4333333333333,-104.866666666667,365.8
1852,CONTRACOSTA LAKE,ALTA,51.7666666666667,-111.55,791.9
1639,CONTWOYTO LAKE,NU,65.4833333333333,-110.366666666667,451.4
242,CONUMA RIVER HATCHERY,BC,49.8002833333333,-126.418075,12
1853,COOKING LAKE,ALTA,53.4333333333333,-113.116666666667,742.5
5342,COOKSHIRE,QUE,45.4166666666667,-71.6333333333333,212.8
4437,COOKSTOWN,ONT,44.2066783333333,-79.6947466666667,243.8
4909,COOKSVILLE,ONT,43.5666666666667,-79.55,91.4
6147,COOKVILLE,NB,46.0333333333333,-64.3333333333333,36.6
157,COOMBS,BC,49.3058333333333,-124.429166666667,98.1
6030,COOPER LAKE,QUE,49,-74.4166666666667,426.7
9010,COP UPPER,ALTA,51.0761166666667,-114.222247222222,1235
4910,COPETOWN,ONT,43.25,-80.1166666666667,228.6
31,COPPER CANYON,BC,48.8333333333333,-123.833333333333,176.8
4114,COPPER CLIFF,ONT,46.4833333333333,-81.05,274.3
6330,COPPER LAKE,NS,45.3833333333333,-61.9666666666667,96.9
1640,COPPERMINE,NU,67.8333333333333,-115.116666666667,9.1
2677,COPTON LO,ALTA,54.1833333333333,-119.4,1855.6
749,COQUITLAM,BC,49.2666666666667,-122.85,7.9
750,COQUITLAM COMO LAKE AVE,BC,49.26945,-122.865558333333,160
27007,COQUITLAM LAFARGE,BC,49.2833333333333,-122.766666666667,34
751,COQUITLAM LAKE,BC,49.3666666666667,-122.8,160.9
752,COQUITLAM MUNDY PARK,BC,49.25,-122.833333333333,101
717,COQUITLAM MUNDY PARK 2,BC,49.2591666666667,-122.835,150
6829,COQUITLAM MUNDY PARK 3,BC,49.2536111111111,-122.839722222222,144.4
6826,COQUITLAM NORTH,BC,49.2666666666667,-122.85,51
1713,CORAL HARBOUR A,NU,64.1933333333333,-83.3594444444444,62.2
1170,CORBIN,BC,49.5166666666667,-114.65,1572.2
32,CORDOVA BAY,BC,48.5333333333333,-123.366666666667,37.2
6808,CORDOVA BAY CLAREMOUNT,BC,48.5166666666667,-123.366666666667,80
33,CORDOVA BAY SOUTH,BC,48.5166666666667,-123.366666666667,26
6609,CORMACK,NFLD,49.3166666666667,-57.4,153.9
50677,CORMACK RCS,NFLD,49.3219530555556,-57.3933361111111,165.8
6933,CORNER BROOK,NFLD,48.9333333333333,-57.9166666666667,151.8
6610,CORNER BROOK,NFLD,48.95,-57.95,4.6
6611,CORNER BROOK AVALON TEL,NFLD,48.95,-57.95,15.2
2871,CORNING,SASK,49.95,-102.966666666667,675.1
4253,CORNWALL,ONT,45.0166666666667,-74.7333333333333,53.3
6331,CORNWALL,NS,44.5333333333333,-64.5666666666667,0
42004,CORNWALL,ONT,45.0313888888889,-74.6813888888889,58
4255,CORNWALL,ONT,45.0155783333333,-74.7489,64
4254,CORNWALL,ONT,45.0333333333333,-74.7,58.5
4256,CORNWALL COLLEGE,ONT,45.0333333333333,-74.7166666666667,54.9
4257,CORNWALL CUMBERLAND ST,ONT,45.05,-74.75,59.4
4258,CORNWALL ONT HYDRO,ONT,45.0333333333333,-74.8,76.2
4259,CORNWALL ST LHS,ONT,45.0333333333333,-74.7166666666667,53.3
3174,CORONACH,SASK,49.2666666666667,-105.6,831
3173,CORONACH,SASK,49.1166666666667,-105.516666666667,772.9
3172,CORONACH SPC,SASK,49.05,-105.483333333333,756
1855,CORONATION,ALTA,52.1166666666667,-111.45,788.5
8691,CORONATION (AUT),ALTA,52.0833333333333,-111.45,790.7
1854,CORONATION A,ALTA,52.0666666666667,-111.45,791
27212,CORONATION CLIMATE,ALTA,52.0741666666667,-111.449444444444,791
10246,COROSSOL,QUE,50.0833333333333,-66.3833333333333,45.7
5788,CORTEREAL,QUE,48.9,-64.6,21.3
159,CORTES ISL SUTIL POINT,BC,50.0166666666667,-124.983333333333,15.2
158,CORTES ISLAND,BC,50.0833333333333,-125.033333333333,6.1
160,CORTES ISLAND TIBER BAY,BC,50.0713888888889,-124.949444444444,15
2872,COTE,SASK,51.5166666666667,-101.783333333333,449.6
5343,COTE ST LUC,QUE,45.45,-73.6666666666667,48.8
10949,COTE-STE-CATHERINE,QUE,45.4166666666667,-73.5666666666667,16.6
5217,COTEAU DU LAC,QUE,45.3166666666667,-74.1666666666667,49.4
4622,COTTAM,ONT,42.1166666666667,-82.75,184.7
161,COURTENAY GRANTHAM,BC,49.7630575,-124.9991675,81
135,COURTENAY MEADOWBROOK,BC,49.7169583333333,-124.976944722222,35
162,COURTENAY PUNTLEDGE,BC,49.6863888888889,-125.0325,40
163,COURTENAY PUNTLEDGE BCHP,BC,49.6833333333333,-125.033333333333,24.4
164,COURTENAY SANDWICK,BC,49.7,-124.966666666667,76
4555,COURTRIGHT,ONT,42.7638933333333,-82.4516816666667,185.9
4555,COURTRIGHT,ONT,42.7638933333333,-82.4516816666667,185.9
3084,COURVAL,SASK,50.1833333333333,-105.883333333333,693.4
3083,COURVAL,SASK,50.1666666666667,-106.25,666.3
5218,COURVILLE,QUE,46.8666666666667,-71.1666666666667,76.2
5200,COURVILLE DE POISSY,QUE,46.8833333333333,-71.1666666666667,114.3
2334,COUTTS,ALTA,49,-111.95,1036.3
2335,COUTTS EXP ST,ALTA,49.0333333333333,-111.85,1057
4556,COVE ISLAND,ONT,45.3333333333333,-81.7333333333333,179.8
9004,COVE ISLAND (AUT),ONT,45.3333333333333,-81.7333333333333,180.7
42605,COVEY HILL,QUE,45.0138888888889,-73.8733333333333,262
6612,COW HEAD,NFLD,49.9116666666667,-57.7888888888889,15.2
3766,COWAN,MAN,52.0333333333333,-100.65,365.8
34,COWICHAN,BC,48.4166666666667,-123.7,51.8
35,COWICHAN BAY CHERRY POINT,BC,48.7111111111111,-123.556666666667,1
36,COWICHAN BAY SOUTHEAST,BC,48.7333333333333,-123.6,94
37,COWICHAN LAKE FORESTRY,BC,48.8244444444444,-124.133333333333,176.8
38,COWICHAN LAKE HATCHERY,BC,48.8333333333333,-124.116666666667,152.4
39,COWICHAN LAKE NITINAT,BC,48.9333333333333,-124.483333333333,189
2232,COWLEY,ALTA,49.6833333333333,-114.116666666667,1188.7
2233,COWLEY A,ALTA,49.6333333333333,-114.083333333333,1182
2234,COWLEY CREEBANK RANCH,ALTA,49.5666666666667,-114.083333333333,1171
2235,COWLEY OLIN CREEK,ALTA,49.7,-114.066666666667,1234.4
31089,COWLEY TANNER,ALTA,49.6472416666667,-114.040022222222,1259
2384,COWLEY TODD CREEK,ALTA,49.7666666666667,-114.266666666667,1980
2502,COWPAR LO,ALTA,55.8333333333333,-110.383333333333,563.3
8724,COX HILL,ALTA,50.9833333333333,-114.95,1674.9
2068,CRAIGMYLE,ALTA,51.7666666666667,-112.283333333333,845.8
46471,CRAIGMYLE AGCM,ALTA,51.7750002777778,-112.252223333333,845
3856,CRANBERRY PORTAGE,MAN,54.6166666666667,-101.35,306
460,CRANBERRY RIVER,BC,55.5,-128.233333333333,609.6
5344,CRANBOURNE,QUE,46.3833333333333,-70.7,0
1172,CRANBROOK,BC,49.5,-115.783333333333,918.7
1173,CRANBROOK A,BC,49.5333333333333,-115.766666666667,918.4
1174,CRANBROOK A,BC,49.6122222222222,-115.781944444444,940
50818,CRANBROOK A,BC,49.6122222222222,-115.781944444444,940
50957,CRANBROOK A - HWOS CLIMATE,BC,49.6122222222222,-115.781944444444,918
51818,CRANBROOK AIRPORT AUTO,BC,49.6176188888889,-115.789048888889,926.7
1171,CRANBROOK CITY,BC,49.5091666666667,-115.760833333333,926
1175,CRANBROOK MAYOOK,BC,49.45,-115.516666666667,854
1176,CRANBROOK MT BAKER,BC,49.5,-115.733333333333,1005.8
